name,address,business_status,latitude,longitude,coordonnees_gps,temp
Pista de pádel,"Diseminado Diseminados, 14, Villovieco",OPERATIONAL,-4.4833536,42.2929338,"42.2929338,-4.4833536",-4.4833536
Pistas de pádel,"C. la Motilla, 4, Villagonzalo Pedernales",OPERATIONAL,-3.739499699999999,42.3004506,"42.3004506,-3.739499699999999",-3.739499699999999
Pista Pádel,Unnamed Road 09390,OPERATIONAL,-3.6916684,42.0951206,"42.0951206,-3.6916684",-3.6916684
Pista de padel,"Calle la Iglesia, 22, Igea",OPERATIONAL,-2.0075315,42.070266,"42.070266,-2.0075315",-2.0075315
Gpadel,"C. Zapatilleros, 54, Arnedo",OPERATIONAL,-2.0859012,42.2339439,"42.2339439,-2.0859012",-2.0859012
Pista de Pádel,El Villar de Arnedo,OPERATIONAL,-2.0924985,42.3206131,"42.3206131,-2.0924985",-2.0924985
Padel Club Rioja,"Av. Logroño, 42, Arnedo",CLOSED_TEMPORARILY,-2.0937533,42.2324989,"42.2324989,-2.0937533",-2.0937533
Inpadel,"C. San Lázaro, 45, Calahorra",OPERATIONAL,-1.9448715,42.2920494,"42.2920494,-1.9448715",-1.9448715
Pistas de padel.,Funes,CLOSED_TEMPORARILY,-1.8019486,42.3182045,"42.3182045,-1.8019486",-1.8019486
Pistas Deportivas Arrabal,Cintruénigo,OPERATIONAL,-1.8065412,42.0749402,"42.0749402,-1.8065412",-1.8065412
Ultimate Padel Villafranca,"C. Carretera, Villafranca",OPERATIONAL,-1.7445322,42.2725754,"42.2725754,-1.7445322",-1.7445322
RÍOS Pádel Club,"C. de La Rioja, Tudela",OPERATIONAL,-1.6347392,42.0654417,"42.0654417,-1.6347392",-1.6347392
Pádel Castejón,"Pol. Ind., Castejón",OPERATIONAL,-1.6879819,42.1736073,"42.1736073,-1.6879819",-1.6879819
MisterPadelEjea,Ejea de los Caballeros,OPERATIONAL,-1.1708125,42.1320478,"42.1320478,-1.1708125",-1.1708125
Pista de pádel,"50614, Zaragoza, Spain",OPERATIONAL,-0.7584025,42.1525322,"42.1525322,-0.7584025",-0.7584025
"Zonepadel, Paddle Club in Huesca","Poligono Sepes, Ronda de la Industria, 133, Huesca",OPERATIONAL,-0.3879114,42.1442861,"42.1442861,-0.3879114",-0.3879114
X3 INDOOR HUESCA PADEL SL,"C. Alcañiz, 4, Huesca",OPERATIONAL,-0.4181272,42.1288738,"42.1288738,-0.4181272",-0.4181272
Indoor Huesca,"C. Siderurgia, 1, Nave 68, Huesca",OPERATIONAL,-0.3909582,42.14579790000001,"42.14579790000001,-0.3909582",-0.3909582
Club Tenis Osca,"Cam. de Cocorón, Huesca",OPERATIONAL,-0.4266597,42.1328277,"42.1328277,-0.4266597",-0.4266597
Fito Pádel,"C. Don Joaquín Costa, 25, Graus",OPERATIONAL,0.3410147,42.1958303,"42.1958303,0.3410147",0.3410147
Pádel municipal El Grado,"Ctra. Graus, 6B, El Grado",OPERATIONAL,0.229599,42.1475768,"42.1475768,0.229599",0.229599
Pista de pádel,Salas Bajas,OPERATIONAL,0.0842041999999999,42.1031673,"42.1031673,0.0842041999999999",0.0842041999999999
Click and Padel,"Carrer Josep Escaler, 7, Oliana",OPERATIONAL,1.312411,42.068117,"42.068117,1.312411",1.312411
Pàdel Indoor,"Carrer Camí Garreta, 34, Berga",OPERATIONAL,1.8261697,42.0923054,"42.0923054,1.8261697",1.8261697
"Agrupació Esportiva Ripollès, Tennis&Pàdel","N-260, Sant Joan de les Abadesses",OPERATIONAL,2.2409498,42.2217797,"42.2217797,2.2409498",2.2409498
Club Tennis Campdevànol,Campdevànol,OPERATIONAL,2.1692991,42.2298749,"42.2298749,2.1692991",2.1692991
Pàdel Indoor Garrotxa,"Polígon Industrial, Carrer dels Enginyers, 13, Les Preses",OPERATIONAL,2.4668625,42.15047819999999,"42.15047819999999,2.4668625",2.4668625
Club de Tennis Sant Quirze de Besora,"Carrer de Jeroni Guixà, s/n, Sant Quirze de Besora",OPERATIONAL,2.2250362,42.0992564,"42.0992564,2.2250362",2.2250362
Club De Tenis Camprodon,"Carrer del Bac de Sant Pere, 4, Camprodon",OPERATIONAL,2.3731669,42.3124808,"42.3124808,2.3731669",2.3731669
Club Tennis Olot,"Av. Equador, 8, 10, Olot",OPERATIONAL,2.4826803,42.1721663,"42.1721663,2.4826803",2.4826803
Club Poliesportiu Santjoanenc,"Carrer Paperera Torras, 2, Sant Joan les Fonts",OPERATIONAL,2.5170471,42.2134857,"42.2134857,2.5170471",2.5170471
Club Tenis Banyoles,"Paseo Antoni Darder, 0 S/N, Passeig Darder, 55, Banyoles",OPERATIONAL,2.7549926,42.1161165,"42.1161165,2.7549926",2.7549926
Gimnàs Triops,"Carrer del Dr. Mascaró, 23, Banyoles",OPERATIONAL,2.7651208,42.1252885,"42.1252885,2.7651208",2.7651208
Pàdel Estany,"Passeig de la Indústria, s/n, Porqueres",OPERATIONAL,2.7867278,42.1059352,"42.1059352,2.7867278",2.7867278
Pàdel Indoor Figueres,"Carrer Itàlia, 30, Figueres",OPERATIONAL,2.9829373,42.2632988,"42.2632988,2.9829373",2.9829373
Club Tennis Alt Empordà Figueres,"Pujada del Castell, 53, Figueres",OPERATIONAL,2.9552201,42.2697575,"42.2697575,2.9552201",2.9552201
Club Tennis Figueres,"Carrer del Camí de la Bòbila, s/n, Santa Llogaia d'Àlguema",OPERATIONAL,2.961587,42.23760499999999,"42.23760499999999,2.961587",2.961587
Padbol Vilafant,"Diseminado, 1, Vilafant",OPERATIONAL,2.957323,42.243595,"42.243595,2.957323",2.957323
Centre Esportiu Vilafant,"Disseminat, s/n, Vilafant",OPERATIONAL,2.9586291,42.2437651,"42.2437651,2.9586291",2.9586291
Club Tennis Padel Roses,"Ctra. Mas Oliva, 53, Roses",OPERATIONAL,3.183961,42.269231,"42.269231,3.183961",3.183961
Pàdel Club Vilacolum,"Carrer Clavells, 24, Torroella de Fluvià",OPERATIONAL,3.0330041,42.1965453,"42.1965453,3.0330041",3.0330041
The Padel Factory,"Carrer Sant Grau, 1, Albons",OPERATIONAL,3.0836993,42.1045445,"42.1045445,3.0836993",3.0836993
Club de Tennis L'Escala,"Carrer de l'Escorxador, 79, L'Escala",OPERATIONAL,3.1287379,42.1224174,"42.1224174,3.1287379",3.1287379
Hat-Trick Palol de Vilatenim - EPSI,"Palol de Vilatenim 17600, Palol",OPERATIONAL,3.0162165,42.2722231,"42.2722231,3.0162165",3.0162165
Agi Rescator Sports,"Carrer Amsterdam, 27, El Mas Oliva",OPERATIONAL,3.1912533,42.2713343,"42.2713343,3.1912533",3.1912533
Pistas de Pádel,"Cjón. Huertas San Zoilo, 3, Carrión de los Condes",OPERATIONAL,-4.607797,42.3365156,"42.3365156,-4.607797",-4.607797
Pistas de Padel,"Av. Carr. de Abia, s/n, Osorno",OPERATIONAL,-4.362204699999999,42.4135749,"42.4135749,-4.362204699999999",-4.362204699999999
Pista de Pádel,Osornillo,OPERATIONAL,-4.2895654,42.3702355,"42.3702355,-4.2895654",-4.2895654
+Padel,"Calle Condado de Treviño, 67 naves 34-35, Burgos",OPERATIONAL,-3.7222659,42.3722134,"42.3722134,-3.7222659",-3.7222659
Blues padel,"C. Condado de Treviño, 40, Burgos",OPERATIONAL,-3.7139503,42.3723446,"42.3723446,-3.7139503",-3.7139503
Pista de pádel de Arroyal,Alfoz de Quintanadueñas,OPERATIONAL,-3.7449391,42.4101711,"42.4101711,-3.7449391",-3.7449391
Pista de Padel Quintanaortuño,"Diseminado Diseminados, 1, Quintanaortuño",OPERATIONAL,-3.6860105,42.4538461,"42.4538461,-3.6860105",-3.6860105
Pista de pádel Villalbilla,"Urb. San Roque, 32, Villalbilla de Burgos",OPERATIONAL,-3.7772299,42.3443891,"42.3443891,-3.7772299",-3.7772299
CDM General Yagüe,"Av. de la Constitución Española, 7, Burgos",OPERATIONAL,-3.6757549,42.3474837,"42.3474837,-3.6757549",-3.6757549
Padel Six Burgos,"Pol. Ind. Taglosa, naves Taglosa, 2-A, Burgos",OPERATIONAL,-3.65027,42.357268,"42.357268,-3.65027",-3.65027
BURPADEL,"Km 243, Naves Taglosa, nº 1, Ctra. Madrid-Irún, Burgos",OPERATIONAL,-3.6496884,42.3569227,"42.3569227,-3.6496884",-3.6496884
Club El Soto,"Est. Logroño-Vigo, Km 105, Burgos",OPERATIONAL,-3.6313621,42.3413848,"42.3413848,-3.6313621",-3.6313621
Club de Tenis de Burgos,"Pje. Fuentes Blancas, Burgos",OPERATIONAL,-3.6401227,42.3357519,"42.3357519,-3.6401227",-3.6401227
Pistas de Padel,Logroño,OPERATIONAL,-2.496934,42.438278,"42.438278,-2.496934",-2.496934
Club de Padel la Grajera,"Camino del pantano de la Grajera, s/n, Logroño",CLOSED_TEMPORARILY,-2.5049607,42.449416,"42.449416,-2.5049607",-2.5049607
Campo de Golf Logroño,"Carretera Burgos Km 2 Parque de La Grajera, Logroño",OPERATIONAL,-2.4970774,42.4383142,"42.4383142,-2.4970774",-2.4970774
Club Deportivo Cenicero,"Av. Olímpica, 25, Cenicero",OPERATIONAL,-2.6339513,42.4821897,"42.4821897,-2.6339513",-2.6339513
Padel La Ribera,"P.º del Prior, 6, Logroño",OPERATIONAL,-2.4348664,42.4703796,"42.4703796,-2.4348664",-2.4348664
Alos pádel indoor,"Polígono Industrial Cantabria, C. Majuelo, 4, Logroño",OPERATIONAL,-2.4091597,42.4756605,"42.4756605,-2.4091597",-2.4091597
Padel & Gym,"NA-134, Viana",OPERATIONAL,-2.3951013,42.4763789,"42.4763789,-2.3951013",-2.3951013
Pistas de Padel,Logroño,OPERATIONAL,-2.4584665,42.4762193,"42.4762193,-2.4584665",-2.4584665
Club De Tenis & Padel,"C/ Rosa Chacel, Logroño",OPERATIONAL,-2.4708439,42.4626635,"42.4626635,-2.4708439",-2.4708439
Pista de pádel,"Polideportivo Universitario, P.º del Prior, 107, Logroño",OPERATIONAL,-2.4217072,42.4675081,"42.4675081,-2.4217072",-2.4217072
Pistas de pádel cubiertas,Logroño,OPERATIONAL,-2.4249086,42.4653656,"42.4653656,-2.4249086",-2.4249086
Polideportivo Municipal Arrúbal,"Cam. el Soto, Arrúbal",OPERATIONAL,-2.2496508,42.4310157,"42.4310157,-2.2496508",-2.2496508
Centro Deportivo Sociocultural Militar 'Hípica de Logroño',"Av. de la Playa, 4, Logroño",OPERATIONAL,-2.4552249,42.47247309999999,"42.47247309999999,-2.4552249",-2.4552249
Piscina Las Norias Logroño,"Complejo Deportivo Municipal Las Norias, Camino de las Norias, s/n, Logroño",OPERATIONAL,-2.4567344,42.4749214,"42.4749214,-2.4567344",-2.4567344
Azento Padel,"C. Bodegas el Cortijo, 60, Logroño",CLOSED_TEMPORARILY,-2.2361254,42.3493196,"42.3493196,-2.2361254",-2.2361254
Pista Padel,"Colegio Público San Miguel, Ctra. Balsa, 54, Larraga",OPERATIONAL,-1.8563867,42.5592254,"42.5592254,-1.8563867",-1.8563867
Frontón de Carcar,"C. la Paz, 24, Cárcar",OPERATIONAL,-1.9825222,42.3961631,"42.3961631,-1.9825222",-1.9825222
Tafallako Igerilekuak,"C. Ábaco, 54, Tafalla",OPERATIONAL,-1.679316,42.5213356,"42.5213356,-1.679316",-1.679316
SMASH padel jaca,"C. Río Gállego, 14, Jaca",OPERATIONAL,-0.566735,42.5625384,"42.5625384,-0.566735",-0.566735
CLUB DATCHBALL SABIÑÁNIGO,"C. Derechos Humanos, 3, Sabiñánigo",OPERATIONAL,-0.3612183,42.5027913,"42.5027913,-0.3612183",-0.3612183
Zona Deportiva la Corona,"P.º de la Corona, 0, Sabiñánigo",OPERATIONAL,-0.3666706,42.5269801,"42.5269801,-0.3666706",-0.3666706
Centro Deportivo Municipal de Fiscal,"Av. Jesús, s/n, Fiscal",OPERATIONAL,-0.1170845,42.4980994,"42.4980994,-0.1170845",-0.1170845
Padel Life & Mas,Aínsa,OPERATIONAL,0.1491417,42.4185121,"42.4185121,0.1491417",0.1491417
Instalaciones deportivas municipales,Lafortunada,OPERATIONAL,0.1959505,42.5432679,"42.5432679,0.1959505",0.1959505
Padel Serradells,"Centre Esportiu Serradells, Ctra. de la Comella i de la Plana, Andorra la Vella",OPERATIONAL,1.5195095,42.499396,"42.499396,1.5195095",1.5195095
Padel CAL PUJOL,"C/ Nord, Alàs",OPERATIONAL,1.5068644,42.3516799,"42.3516799,1.5068644",1.5068644
Urban Sport Padel Club La Seu,La Seu d'Urgell,OPERATIONAL,1.46235,42.3606273,"42.3606273,1.46235",1.46235
Padel & Putting Green Mas d'en Roqueta,"Mas d'en Roqueta, 1, Aravell",OPERATIONAL,1.402932,42.366471,"42.366471,1.402932",1.402932
Princiesport,"Av. d'Enclar, núm, 105, Santa Coloma",OPERATIONAL,1.4976555,42.4930253,"42.4930253,1.4976555",1.4976555
Go AND Padel,"Av. Nacions Unides 17, 4to 1ra, Escaldes-Engordany",OPERATIONAL,1.5347241,42.50976929999999,"42.50976929999999,1.5347241",1.5347241
Camp d'Andorra,Andorra la Vella,OPERATIONAL,1.5293988,42.5007953,"42.5007953,1.5293988",1.5293988
Club & Escola. Tennis & Pàdel. La Massana ANDORRA,"Tennis & Pàdel Club (La Massana - Serradells, Antic Camí Ral, s/n, La Massana",OPERATIONAL,1.516863,42.544344,"42.544344,1.516863",1.516863
MyWorldPadel,"Av. Príncep Benlloch, Encamp",OPERATIONAL,1.5787433,42.534741,"42.534741,1.5787433",1.5787433
Padelife,"Carrer Verge del Remei, Santa Coloma",OPERATIONAL,1.499615,42.4941594,"42.4941594,1.499615",1.499615
Padel Nuestro Andorra,"Carrer de na Maria Pla, 8, Andorra la Vella",OPERATIONAL,1.5332684,42.5077064,"42.5077064,1.5332684",1.5332684
Club Tennis Santa Coloma,"Carrer Verge del Remei, 11, Santa Coloma",OPERATIONAL,1.4993546,42.49412419999999,"42.49412419999999,1.4993546",1.4993546
Unió Esports,"Carrer Mossen Cinto Verdaguer nº2, local, 2, Andorra la Vella",OPERATIONAL,1.5223098,42.508518,"42.508518,1.5223098",1.5223098
"AnyósPark, el Club","Carretera d'Anyós, sn, Anyós, La Massana",OPERATIONAL,1.5239574,42.53267779999999,"42.53267779999999,1.5239574",1.5239574
Pista de Padel Click&Padel,Bellver de Cerdanya,OPERATIONAL,1.7771979,42.3683357,"42.3683357,1.7771979",1.7771979
Pista de padel Queixans,"Camí Mas d'en Serra, 7, Queixans",OPERATIONAL,1.9192868,42.3954369,"42.3954369,1.9192868",1.9192868
Pistes de Padel,"Carrer del Ginebró, 1, Bolvir",OPERATIONAL,1.873,42.41683,"42.41683,1.873",1.873
CLUB ESPORTIU CERDANYA,"Avinguda de Llevant, 5, Das",OPERATIONAL,1.8591493,42.364973,"42.364973,1.8591493",1.8591493
La Molina Club d'Esports,"Avinguda Supermolina, La Molina",OPERATIONAL,1.9373797,42.33628059999999,"42.33628059999999,1.9373797",1.9373797
Tennis Club,"Av. du Grand Termanal, Bolquère",OPERATIONAL,2.0667601,42.5186277,"42.5186277,2.0667601",2.0667601
Font-Romeu,"26 lotVillage, Bolquère",OPERATIONAL,2.0779169,42.50250500000001,"42.50250500000001,2.0779169",2.0779169
Club Poliesportiu Puigcerdà,"Avinguda Ramon Condomines, s/n, Puigcerdà",OPERATIONAL,1.9351826,42.4397358,"42.4397358,1.9351826",1.9351826
Pista de pàdel càmping,Vilallonga de Ter,OPERATIONAL,2.3066034,42.3342856,"42.3342856,2.3066034",2.3066034
Pista de pàdel de Maçanet de Cabrenys,Maçanet de Cabrenys,OPERATIONAL,2.7555915,42.3869151,"42.3869151,2.7555915",2.7555915
LE BOULOU TENNIS,"15 Rue Ronsard, Villemolaque",OPERATIONAL,2.826869,42.520025,"42.520025,2.826869",2.826869
Tennis Paddle Club Banyuls Sur Mer,"Route Mas Reig, Banyuls-sur-Mer",OPERATIONAL,3.119276,42.4745896,"42.4745896,3.119276",3.119276
Club Padel Garbí Llançà,"Carrer 8 de Març, s/n, Llançà",OPERATIONAL,3.1532987,42.358715,"42.358715,3.1532987",3.1532987
Pista de Tenis & Padel LA SORRA,"South Place. 5 la SORRA, 2, 2R, El Port de la Selva",OPERATIONAL,3.2073265,42.3275172,"42.3275172,3.2073265",3.2073265
BANYULS AVIRON OLYMPIC TENNIS,"Rte du Mas Reig, Banyuls-sur-Mer",OPERATIONAL,3.117454,42.476855,"42.476855,3.117454",3.117454
Padel Marcos Garcia,"Pl. Poligono Industrial, 33, Aguilar de Campoo",OPERATIONAL,-4.2528312,42.78354969999999,"42.78354969999999,-4.2528312",-4.2528312
Pistas de Pádel,Herrera de Pisuerga,OPERATIONAL,-4.3357314,42.5927301,"42.5927301,-4.3357314",-4.3357314
Pistas de Pádel,"Tr.ª Marqués Aguilar, 19, Aguilar de Campoo",OPERATIONAL,-4.2567904,42.7897594,"42.7897594,-4.2567904",-4.2567904
Pista de pádel de Montorio,Montorio,OPERATIONAL,-3.775722,42.5856224,"42.5856224,-3.775722",-3.775722
Bureba Padel,"Av. Burgos, 66, Briviesca",OPERATIONAL,-3.3162956,42.5616013,"42.5616013,-3.3162956",-3.3162956
Pista Padel,"Calle Rio Paralela, 5, Lences",OPERATIONAL,-3.4901454,42.6304124,"42.6304124,-3.4901454",-3.4901454
Pista de padel de Oña,"C. Estación, 5, Oña",OPERATIONAL,-3.4130292,42.7364293,"42.7364293,-3.4130292",-3.4130292
Pádel Ebro,"C. Orón, 6, Miranda de Ebro",OPERATIONAL,-2.9221869,42.6931433,"42.6931433,-2.9221869",-2.9221869
MPC Miranda Pádel Club,"Pol. Ind. Bayas, 17, Miranda de Ebro",OPERATIONAL,-2.9145247,42.6957605,"42.6957605,-2.9145247",-2.9145247
Pista de Pádel,"C. Cercas Harresien, 4, La Puebla de Arganzón",OPERATIONAL,-2.831061,42.7657945,"42.7657945,-2.831061",-2.831061
Pista de Pádel,"Cam. de Baños, 5, Casalarreina",OPERATIONAL,-2.9151789,42.5462612,"42.5462612,-2.9151789",-2.9151789
PISTA DE PADEL,Villatuerta,OPERATIONAL,-1.9885849,42.661713,"42.661713,-1.9885849",-1.9885849
"Municipial Sports Centre ""San Ginés""","31132, Calle Regueta, 2, Villatuerta",OPERATIONAL,-1.9895375,42.6612128,"42.6612128,-1.9895375",-1.9895375
IMPACT PADEL SPORT,"Calle G, 43, Galar",OPERATIONAL,-1.6407007,42.7806696,"42.7806696,-1.6407007",-1.6407007
MUNDO CAPITANI,"Pol. nº, Calle a, 33, Mutilva",OPERATIONAL,-1.624048,42.7856068,"42.7856068,-1.624048",-1.624048
Navarra-Nafarroa Padel,"C. Cam. de Labiano, 49, Mutilva Alta",OPERATIONAL,-1.6137682,42.7953278,"42.7953278,-1.6137682",-1.6137682
PÁDEL REYNO DE NAVARRA,"C. E, 1, Beriáin",OPERATIONAL,-1.6315985,42.7356448,"42.7356448,-1.6315985",-1.6315985
Tray Padel Club,"Calle a, 66, Mutilva Baja",OPERATIONAL,-1.6234621,42.7842621,"42.7842621,-1.6234621",-1.6234621
Pista de Pádel Eneriz,"C. Aranzulo, 5, Enériz",OPERATIONAL,-1.7256203,42.6688652,"42.6688652,-1.7256203",-1.7256203
FEDERACIÓN NAVARRA DE PÁDEL,"PLAZA AIZAGERRIA, 1 2ª Planta, Pamplona",OPERATIONAL,-1.6349699,42.7955029,"42.7955029,-1.6349699",-1.6349699
DALE FACTORY,"Polígono Mutilva, CA-33, Mutilva",OPERATIONAL,-1.6262936,42.7876705,"42.7876705,-1.6262936",-1.6262936
Fronton Cordovilla,"Av. de Zaragoza, Cordovilla",OPERATIONAL,-1.6395237,42.7940597,"42.7940597,-1.6395237",-1.6395237
Parking clientes Navarra Padel,"C. Cam. de Labiano, 49, Aranguren",OPERATIONAL,-1.6137293,42.7957571,"42.7957571,-1.6137293",-1.6137293
MP MegaPadel,"Av. Constitución, 23, Artajona",OPERATIONAL,-1.7593978,42.5911724,"42.5911724,-1.7593978",-1.7593978
Torneo padel Hnos. Puñal,"C. Cam. de Labiano, 49, Aranguren",CLOSED_TEMPORARILY,-1.6136186,42.7956989,"42.7956989,-1.6136186",-1.6136186
Pista de Pádel,A-1602,OPERATIONAL,-0.8517998,42.6019674,"42.6019674,-0.8517998",-0.8517998
Pista de padel,Villanúa,OPERATIONAL,-0.5356453,42.6791383,"42.6791383,-0.5356453",-0.5356453
Pista de pádel,"C. Fernando el Católico, 24, Jaca",OPERATIONAL,-0.5557926,42.5669361,"42.5669361,-0.5557926",-0.5557926
Gimnasio Sparta Sport Center Jaca,"C. Río Ijuez, 11, Jaca",OPERATIONAL,-0.5679019,42.5630656,"42.5630656,-0.5679019",-0.5679019
Club Padel Valle Benasque,"C. San Pedro, Benasque",OPERATIONAL,0.522486,42.6031745,"42.6031745,0.522486",0.522486
Pista de Padel Benasque,Benasque,OPERATIONAL,0.5291075,42.6033134,"42.6033134,0.5291075",0.5291075
Pista de padel,Linsoles,OPERATIONAL,0.5057264,42.5898338,"42.5898338,0.5057264",0.5057264
Club Tenis Cerler,Cerler,OPERATIONAL,0.5395865,42.59114539999999,"42.59114539999999,0.5395865",0.5395865
Pista Padel,Vielha,OPERATIONAL,0.8017921000000001,42.700376,"42.700376,0.8017921000000001",0.8017921000000001
Pista de Pàdel Municipal,Vilamòs,OPERATIONAL,0.7298897999999999,42.7461822,"42.7461822,0.7298897999999999",0.7298897999999999
OC SPORT CLUB,"Carrer Aiguaprima, nave 7, Vielha",OPERATIONAL,0.7979786,42.7099637,"42.7099637,0.7979786",0.7979786
AX LES THERMES TENNIS CLUB,"Av. d'Andorre, Ax-les-Thermes",OPERATIONAL,1.842997,42.711716,"42.711716,1.842997",1.842997
LV SPORT ILLE SUR TET,"4 Camp Llarg, Ille-sur-Têt",OPERATIONAL,2.635272,42.678011,"42.678011,2.635272",2.635272
Tennis Squash Padel Club le Mas,"Chemin Arcades, Avenue d'Espagne, Perpignan",OPERATIONAL,2.8889647,42.678406,"42.678406,2.8889647",2.8889647
Central Padel Perpignan Indoor,"1155 Av. Julien Panchot, Perpignan",OPERATIONAL,2.8744314,42.6879421,"42.6879421,2.8744314",2.8744314
Tennis/Padel Club Saleillenc,"complexe sportif de plein air du moulin, Chem. de Saint-Nazaire, Saleilles",OPERATIONAL,2.9598632,42.6566055,"42.6566055,2.9598632",2.9598632
Can padel,"2 Imp. du Conflent, Saleilles",OPERATIONAL,2.9280969,42.6599197,"42.6599197,2.9280969",2.9280969
squash padel parc ducup,"2 Rue Etienne Lenoir, Perpignan",OPERATIONAL,2.8493296,42.6912478,"42.6912478,2.8493296",2.8493296
Raquette Padel & Tennis,"ZA Sud Roussillon, 4 impasse du conflent, Saleilles",OPERATIONAL,2.9277472,42.6604765,"42.6604765,2.9277472",2.9277472
Squash Club Parc Ducup,"2 Rue Etienne Lenoir, Perpignan",OPERATIONAL,2.8502646,42.6912399,"42.6912399,2.8502646",2.8502646
TENNIS/PADEL,"Av. du Clos d'en Cante, Espira-de-l'Agly",OPERATIONAL,2.8436614,42.7711402,"42.7711402,2.8436614",2.8436614
Complexe Sportif du Roussillon,"Imp. Alfred Sauvy, Rivesaltes",OPERATIONAL,2.9000057,42.7850913,"42.7850913,2.9000057",2.9000057
USC MOULIN A VENT,"90 Av. Paul Alduy, Perpignan",OPERATIONAL,2.9042751,42.6751849,"42.6751849,2.9042751",2.9042751
SARL LV SPORTS,"161 Rue de Munich, Perpignan",OPERATIONAL,2.853682,42.685347,"42.685347,2.853682",2.853682
Ipc Sport,"1155 Av. Julien Panchot, Perpignan",OPERATIONAL,2.8745289,42.68765,"42.68765,2.8745289",2.8745289
Gestion Sports,"3 Rue du Gargal, Saint-Cyprien",OPERATIONAL,2.992835,42.612986,"42.612986,2.992835",2.992835
USAP TENNIS,"11 All. Aimé Giral, Saint-Estève",OPERATIONAL,2.8898485,42.7146674,"42.7146674,2.8898485",2.8898485
Cabestany O.C Tennis,"Chem. du Mas Carcassonne, Cabestany",OPERATIONAL,2.9416112,42.6721038,"42.6721038,2.9416112",2.9416112
Centre de Tennis Europa,"4 Av. Guy Drut, Canet-en-Roussillon",OPERATIONAL,3.0178938,42.7026875,"42.7026875,3.0178938",3.0178938
Grand Stage Les Capellans,"Rue Verdi, Saint-Cyprien",OPERATIONAL,3.029256,42.60510319999999,"42.60510319999999,3.029256",3.029256
CANET 66 TENNIS,"4 Av. Guy Drut, Canet-en-Roussillon",OPERATIONAL,3.019389,42.702869,"42.702869,3.019389",3.019389
Pistas de Padel Municipales Nestares,"C. Gándara, 5, Nestares",OPERATIONAL,-4.1582347,42.9976077,"42.9976077,-4.1582347",-4.1582347
Reinosa Pádel Club Indoor,"Pl. Vega-Sepes, 173, Reinosa",OPERATIONAL,-4.1282557,42.9983927,"42.9983927,-4.1282557",-4.1282557
Pistas de padel de Reinosa,"C. Daniel Pérez Samitier, 6, Reinosa",OPERATIONAL,-4.1437481,43.0018627,"43.0018627,-4.1437481",-4.1437481
Pistas de Padel,"C. Marqués de Reinosa, 2, Reinosa",CLOSED_TEMPORARILY,-4.1421002,42.9994558,"42.9994558,-4.1421002",-4.1421002
PADEL NANCLARES,Nanclares de la Oca,OPERATIONAL,-2.7987834,42.8221324,"42.8221324,-2.7987834",-2.7987834
PADEL LAMENNAIS,"COLEGIO SAN JOSÉ, Langraiz Etorbidea, 2, Nanclares de la Oca",OPERATIONAL,-2.8002247,42.8191901,"42.8191901,-2.8002247",-2.8002247
Padel Jundiz,"Paduleta Kalea, 26, Gasteiz",OPERATIONAL,-2.7483632,42.8300562,"42.8300562,-2.7483632",-2.7483632
Gorbeia Pádel&Spa,"Carretera Miñano, S/N, Etxabarri-Ibiña",OPERATIONAL,-2.7129719,42.9118155,"42.9118155,-2.7129719",-2.7129719
Pádel Pista Norte - Iparraldeko Padel Jolaslekua,"Alto de Armentia Kalea, 24, Gasteiz",OPERATIONAL,-2.703641,42.8361429,"42.8361429,-2.703641",-2.703641
FEDERACION ALAVESA DE PADEL,"Amadeo Garcia de Salazar Plaza, S/N, Gasteiz",OPERATIONAL,-2.6880578,42.8376309,"42.8376309,-2.6880578",-2.6880578
Peña Vitoriana Tenis Club,"Kalea ULETA, 11, BAJO, Vitoria-Gasteiz",OPERATIONAL,-2.6956682,42.8317388,"42.8317388,-2.6956682",-2.6956682
VivaGym Padeleku | VivaGym en Vitoria,"Donostia San Sebastian Kalea, 48, Gasteiz",OPERATIONAL,-2.6896105,42.8642656,"42.8642656,-2.6896105",-2.6896105
Pablo Semprún Sport Center,"C. Intxaurdia, 5, Huarte",OPERATIONAL,-1.5845296,42.8273482,"42.8273482,-1.5845296",-1.5845296
Pistas de pádel,"C. Beloso Alto, s/n, Pamplona",OPERATIONAL,-1.6265016,42.8182741,"42.8182741,-1.6265016",-1.6265016
Pista de pádel,"C. A, 10, Barañáin",OPERATIONAL,-1.6911076,42.8062836,"42.8062836,-1.6911076",-1.6911076
Maristas Sports Facilities,"Calle Paseo de Champagnat, 2, Sarriguren",OPERATIONAL,-1.6024774,42.8104839,"42.8104839,-1.6024774",-1.6024774
Pegaso Padel,"Pol. Ind, Calle D, 46, Egüés",OPERATIONAL,-1.5521209,42.8209915,"42.8209915,-1.5521209",-1.5521209
RCB SPORTEAM & RC-NATURA,"C. Castillo de Maya, 27, Pamplona",OPERATIONAL,-1.6342387,42.8119141,"42.8119141,-1.6342387",-1.6342387
Club de Tenis de Pamplona,"C. Monte Monjardín, s/n, Pamplona",OPERATIONAL,-1.6334899,42.8076265,"42.8076265,-1.6334899",-1.6334899
SAINT LARY TENNIS CLUB,"parc des sports, Cadéac",OPERATIONAL,0.320275,42.8158161,"42.8158161,0.320275",0.320275
FOIX TENNIS,"l'Ayroule, Foix",OPERATIONAL,1.639265,42.918777,"42.918777,1.639265",1.639265
Tennis Padel Club Barcarès,"Av. de la Coudalère, Le Barcarès",OPERATIONAL,3.0291153,42.8167357,"42.8167357,3.0291153",3.0291153
Pistas de pádel,Villasana de Mena,OPERATIONAL,-3.2896994,43.0992665,"43.0992665,-3.2896994",-3.2896994
Padel ON S.L.,"Torrelaragoiti, Zamudio",OPERATIONAL,-2.8554083,43.2787999,"43.2787999,-2.8554083",-2.8554083
Es+Padel,"Torrelaragoiti, Zamudio",OPERATIONAL,-2.8587996,43.2780909,"43.2780909,-2.8587996",-2.8587996
Bilbao Padel Indoor,"Torrelaragoiti, 7A, Zamudio",OPERATIONAL,-2.8552548,43.2787361,"43.2787361,-2.8552548",-2.8552548
Padel Pista,"Udiarraga Kalea, 79, Ugao-Miraballes",OPERATIONAL,-2.9038649,43.1767086,"43.1767086,-2.9038649",-2.9038649
Padel-pistak Arrigorriaga,"Paseo Urgoiti, 1C, Arrigorriaga",OPERATIONAL,-2.8870758,43.2130357,"43.2130357,-2.8870758",-2.8870758
Pistas de pádel,"Barrio, Artunduaga Kalea, s/n, Basauri",OPERATIONAL,-2.8827581,43.2320168,"43.2320168,-2.8827581",-2.8827581
Padel Expression,"Uribitarte Kalea, 6, Bilbo",OPERATIONAL,-2.9273948,43.2641547,"43.2641547,-2.9273948",-2.9273948
Pro Padel Set,"Alameda de Recalde, 6, 6º, Bilbao",OPERATIONAL,-2.9333607,43.2673322,"43.2673322,-2.9333607",-2.9333607
Bilbao Tenis Club,"Circo Amateur del Club Deportivo Kalea, 2, Bilbo",OPERATIONAL,-2.9081539,43.2499217,"43.2499217,-2.9081539",-2.9081539
PADEL PRO-KIT,"Egaña Kalea, 10, EXTERIOR 1º DCHA, Bilbo",OPERATIONAL,-2.9375348,43.258395,"43.258395,-2.9375348",-2.9375348
Padelko,"Poligono industrial Tabernabarri n3 A1, Iurreta",OPERATIONAL,-2.6569515,43.1793099,"43.1793099,-2.6569515",-2.6569515
Pista de padel cubierta,"Txibitena Auzunea Etxetaldea, 21A, Durango",OPERATIONAL,-2.6254133,43.17266679999999,"43.17266679999999,-2.6254133",-2.6254133
Pista de pádel,"Intxaurrondo Kalea, 54, Durango",OPERATIONAL,-2.6310672,43.1609793,"43.1609793,-2.6310672",-2.6310672
pistas de padel,Durango,OPERATIONAL,-2.6244269,43.1718442,"43.1718442,-2.6244269",-2.6244269
Pista de Pádel,Argixao,OPERATIONAL,-2.3175868,43.0845329,"43.0845329,-2.3175868",-2.3175868
Pistas de Pádel,"Bikuña Kalea, 38, Legazpi",OPERATIONAL,-2.3363945,43.0475572,"43.0475572,-2.3363945",-2.3363945
Padel Indoor Goierri,"Polígono Gudugarreta 16 A, Beasain",OPERATIONAL,-2.2269409,43.0506093,"43.0506093,-2.2269409",-2.2269409
Baztan Padel Club,Oronoz-Mugairi,OPERATIONAL,-1.6102035,43.1370352,"43.1370352,-1.6102035",-1.6102035
Frontón de Aldudes,"D58, Aldudes",OPERATIONAL,-1.4402872,43.0797149,"43.0797149,-1.4402872",-1.4402872
LAMARQUE PONTACQ,"lotissement du Centre, Lamarque-Pontacq",OPERATIONAL,-0.11483,43.178459,"43.178459,-0.11483",-0.11483
Centre Départemental de Padel des Hautes-Pyrénées,"Rue de l'Agriculture, Horgues",OPERATIONAL,0.0800482,43.1856641,"43.1856641,0.0800482",0.0800482
Legend Padel TARBES,"23 Rte de Pau, Ibos",OPERATIONAL,-0.0106384,43.2426286,"43.2426286,-0.0106384",-0.0106384
ASCA Tennis,"Rue du Stade, Aureilhan",OPERATIONAL,0.0849303,43.24864789999999,"43.24864789999999,0.0849303",0.0849303
TENNIS GER FOYER RURAL,"Rte de la Marcotte Capbat, Ger",OPERATIONAL,-0.04753,43.27350999999999,"43.27350999999999,-0.04753",-0.04753
Comité Départemental de Tennis des Hautes Pyrénées,"1 Chem. de Bastillac, Tarbes",OPERATIONAL,0.041492,43.2245706,"43.2245706,0.041492",0.041492
Les Peupliers,"21 Grande Rue, La Barthe-de-Neste",OPERATIONAL,0.3827812,43.0810289,"43.0810289,0.3827812",0.3827812
LANNEMEZAN TENNIS CLUB,"Rue du Stade, Lannemezan",OPERATIONAL,0.387506,43.12655,"43.12655,0.387506",0.387506
Boussens Cassagne Mazères Tennis,"7 Imp. du Stade, Boussens",OPERATIONAL,0.9732978,43.1775283,"43.1775283,0.9732978",0.9732978
PAMIERS TENNIS CLUB,"6 Avenue de la Rijole, Pamiers",OPERATIONAL,1.607953,43.114754,"43.114754,1.607953",1.607953
Oustal padel Carcassonne,"2095 Bd François-Xavier Fafeur, Carcassonne",OPERATIONAL,2.294595,43.21250149999999,"43.21250149999999,2.294595",2.294595
club briolet padel tennis,"Rue Al Parré, Palaja",OPERATIONAL,2.3867065,43.1712693,"43.1712693,2.3867065",2.3867065
Club le paradis,"sautes le haut rn 113, Carcassonne",OPERATIONAL,2.4134295,43.2032367,"43.2032367,2.4134295",2.4134295
Le Paradis / Squash Paddle Dance Bar Restaurant Events Hire De Salles,"N113, Carcassonne",OPERATIONAL,2.410339,43.2039738,"43.2039738,2.410339",2.410339
ACACIA TC,"14 Av. du Général Sarrail, Carcassonne",OPERATIONAL,2.366683,43.216389,"43.216389,2.366683",2.366683
Asptt Carcassonne,"1 Rue Marceau Perrutel Prolongé, Carcassonne",OPERATIONAL,2.3482753,43.2065566,"43.2065566,2.3482753",2.3482753
Padel Narbonne Area Padel Club,"Route de Perpignan, Narbonne",OPERATIONAL,2.9946847,43.1740907,"43.1740907,2.9946847",2.9946847
INDOOR Center,"26 Rue Francis Aston, Narbonne",OPERATIONAL,2.9677778,43.1575,"43.1575,2.9677778",2.9677778
ATP FLEURY ST PIERRE LA MER,"club house les, Pl. des Cayrols, FLEURY D'AUDE",OPERATIONAL,3.1364135,43.2269632,"43.2269632,3.1364135",3.1364135
Valras Tennis/Padel,"Cami de Canto Rano, Valras-Plage",OPERATIONAL,3.2853883,43.2486026,"43.2486026,3.2853883",3.2853883
AS Tennis Padel Ceyreste,"38 Av. Eugène Julien, Ceyreste",OPERATIONAL,5.6302169,43.2225364,"43.2225364,5.6302169",5.6302169
Tennis et Padel club presqu'île,"Unnamed Road, Cassis",OPERATIONAL,5.5174964,43.2049825,"43.2049825,5.5174964",5.5174964
Sporting Club Cassis Tennis & Padel,"Av. des Gorguettes, Cassis",OPERATIONAL,5.5344393,43.23013539999999,"43.23013539999999,5.5344393",5.5344393
Luminy Tennis Academy | Tennis & Padel,"Rue Henri Cochet, Marseille",OPERATIONAL,5.430134799999999,43.23818869999999,"43.23818869999999,5.430134799999999",5.430134799999999
ASSOCIATION TCP PADEL,"MIOU, TENNIS CLUB DE LA PRESQU'ILE, QUARTIER PORT, Cassis",OPERATIONAL,5.516852,43.21143,"43.21143,5.516852",5.516852
la Ciotat Tennis Club,"Av. Léo Lagrange, La Ciotat",OPERATIONAL,5.6313949,43.1961813,"43.1961813,5.6313949",5.6313949
AS TENNIS LA CIOTAT/CEYRESTE,"Av. Eugène Julien, Ceyreste",OPERATIONAL,5.630121,43.2227192,"43.2227192,5.630121",5.630121
TMO Padel,"568 Rte de la Gare, Ollioules",OPERATIONAL,5.831091499999999,43.1240234,"43.1240234,5.831091499999999",5.831091499999999
O' Sports Club,"Campus La Grande Tourrache, 450 Av. François ARAGO - ZI TOULON EST, La Garde",OPERATIONAL,6.044216,43.1471227,"43.1471227,6.044216",6.044216
CST La Tourrache,"328 Rue François Arago, La Garde",OPERATIONAL,6.0454837,43.1485663,"43.1485663,6.0454837",6.0454837
TCT,"48 Av. des Frères Lumière, La Valette-du-Var",OPERATIONAL,5.999662799999999,43.1341896,"43.1341896,5.999662799999999",5.999662799999999
Tennis & Padel Ramatuelle,"54 Chem. du Tennis, Ramatuelle",OPERATIONAL,6.6167469,43.2152366,"43.2152366,6.6167469",6.6167469
Pistas de Padel en Unquera,"Plaza Mercado, 28C",OPERATIONAL,-4.5146104,43.3753457,"43.3753457,-4.5146104",-4.5146104
Padel Indoor Llanes,"poligono la vega nave 2, San Roque del Acebal",OPERATIONAL,-4.734561999999999,43.397796,"43.397796,-4.734561999999999",-4.734561999999999
Padel Galas,"Bo. Ontoria, 19, Ontoria",OPERATIONAL,-4.216098,43.3083815,"43.3083815,-4.216098",-4.216098
Padel Indoor CD. SALAS,"Polígono Industrial de los Tánagos, Bo. los Tánagos, 8",OPERATIONAL,-4.4531854,43.3753629,"43.3753629,-4.4531854",-4.4531854
El Templo Del Padel,"Calle Navas Industria, 8, Cabezón de la Sal",OPERATIONAL,-4.25218,43.3104299,"43.3104299,-4.25218",-4.25218
Racket Sport Center,"Poligono Pol.ind.tanos, 6B, 39300",OPERATIONAL,-4.03634,43.32832,"43.32832,-4.03634",-4.03634
Club de Padel La Montaña,"Av. Bilbao, 159, Torrelavega",OPERATIONAL,-4.023016999999999,43.3335337,"43.3335337,-4.023016999999999",-4.023016999999999
Pistas de Padel,Cartes,OPERATIONAL,-4.0679264,43.3227283,"43.3227283,-4.0679264",-4.0679264
Padel Liencres,"Bo. Liencres, 3P",OPERATIONAL,-3.933239699999999,43.4635855,"43.4635855,-3.933239699999999",-3.933239699999999
ZINK PADEL,"Poligono Parque Empresarial Besaya, 1, Reocín",OPERATIONAL,-4.098618699999999,43.3317601,"43.3317601,-4.098618699999999",-4.098618699999999
Pistas de pádel municipales,"C. Pablo Garnica, 58, Torrelavega",OPERATIONAL,-4.0591985,43.3554013,"43.3554013,-4.0591985",-4.0591985
Pistas de pádel,"Urb. Bezana Bella, 47, 49, Santa Cruz de Bezana",OPERATIONAL,-3.9097823,43.4347512,"43.4347512,-3.9097823",-3.9097823
Pistas de Pádel Puente Arce,"Bo. la Cagiga, 3, Arce",OPERATIONAL,-3.9375715,43.40687570000001,"43.40687570000001,-3.9375715",-3.9375715
Pista de pádel de La Pelia,"Bo. la Pelia, 21A, Santillana del Mar",OPERATIONAL,-4.0557793,43.3810267,"43.3810267,-4.0557793",-4.0557793
Pistas de padel de Renedo,"Bo. las Cuartas, 43, Renedo de Piélagos",OPERATIONAL,-3.9502491,43.351429,"43.351429,-3.9502491",-3.9502491
Pista de pádel Ganzo,Duález,OPERATIONAL,-4.0676662,43.35915079999999,"43.35915079999999,-4.0676662",-4.0676662
Pista de pádel de Rinconeda,"Bo. Rinconeda, 1616, Polanco",OPERATIONAL,-4.0344963,43.3764899,"43.3764899,-4.0344963",-4.0344963
Circuito De Skate Board y Pista de Padel,"Cl. Quintana, 110, Suances",OPERATIONAL,-4.0562936,43.4237118,"43.4237118,-4.0562936",-4.0562936
La Montaña - Padel,"39300, Cantabria, Spain",OPERATIONAL,-4.0229086,43.3325586,"43.3325586,-4.0229086",-4.0229086
Pistas De Padel,"Cl. Quintana, 107, Suances",OPERATIONAL,-4.0562565,43.4227776,"43.4227776,-4.0562565",-4.0562565
Club de Pádel Astillero Guarnizo,El Astillero,OPERATIONAL,-3.817822,43.398426,"43.398426,-3.817822",-3.817822
Central Padel Club,"Poligono Borrancho, C/ Borrancho, 7, Santa Cruz de Bezana",OPERATIONAL,-3.890594999999999,43.4657258,"43.4657258,-3.890594999999999",-3.890594999999999
Padel Medio Cudeyo. Solares.,"C. Mies del Corro, 3, Solares",OPERATIONAL,-3.737368699999999,43.3783947,"43.3783947,-3.737368699999999",-3.737368699999999
G6 Padel & Gym,"C. Mies de San Juan, 22, Maliaño",OPERATIONAL,-3.8316349,43.424961,"43.424961,-3.8316349",-3.8316349
"C. D. ""La Playuca”",Guarnizo,OPERATIONAL,-3.857322399999999,43.3924295,"43.3924295,-3.857322399999999",-3.857322399999999
Pistas De Padel Somo,"C. Llosa Sierra, 27, Somo",OPERATIONAL,-3.7370725,43.4531423,"43.4531423,-3.7370725",-3.7370725
"Padel Camargo, La Maruca","C. Hermanos Torre Oruña, 38, Camargo",OPERATIONAL,-3.851007699999999,43.4272454,"43.4272454,-3.851007699999999",-3.851007699999999
Volea Padel Santander,"Polígono de Raos, Maliaño",OPERATIONAL,-3.8344391,43.4350198,"43.4350198,-3.8344391",-3.8344391
Club Tenis Monteverde,"C. Tristana, 21, A, Santander",OPERATIONAL,-3.8351792,43.4725248,"43.4725248,-3.8351792",-3.8351792
Padel Galizano,"Diseminado Galizano, 177",OPERATIONAL,-3.681815,43.4628169,"43.4628169,-3.681815",-3.681815
Padel Club Villaescusa,La Concha,OPERATIONAL,-3.8560342,43.3714757,"43.3714757,-3.8560342",-3.8560342
Pista de Pádel de La Cueva,"39650, Cantabria, Spain",OPERATIONAL,-3.9004431,43.3168292,"43.3168292,-3.9004431",-3.9004431
PadelX5Bahiason,"Calle Industria, 14, Bárcena de Cicero",OPERATIONAL,-3.4874935,43.4175572,"43.4175572,-3.4874935",-3.4874935
Padel Meruelo,"Bo. el Campo, 2C, San Miguel de Meruelo",OPERATIONAL,-3.5801064,43.4545782,"43.4545782,-3.5801064",-3.5801064
Padel Argoños,"Bo. la Hoya, 16C, Argoños",OPERATIONAL,-3.512207,43.4587775,"43.4587775,-3.512207",-3.512207
Club De Padel Colindres,"Calle la Mar, 24C, Colindres",OPERATIONAL,-3.4582242,43.3966636,"43.3966636,-3.4582242",-3.4582242
Pistas de Pádel de Hoz de Anero,"Complejo Polideportivo de, Hoz de Anero",OPERATIONAL,-3.6668894,43.400707,"43.400707,-3.6668894",-3.6668894
Pista De Padel,Isla,OPERATIONAL,-3.5465342,43.4948501,"43.4948501,-3.5465342",-3.5465342
Pistas de padel municipales,"Av. Benedicto Ruiz, 523, Bareyo",OPERATIONAL,-3.6135004,43.4803552,"43.4803552,-3.6135004",-3.6135004
Pista de padel municipal,"Bo. San Pedro, 1, Arnuero",OPERATIONAL,-3.5528956,43.4583134,"43.4583134,-3.5528956",-3.5528956
Escuela Tenis Y Padel Santi Marino,"Av. de Emilio Caprile Poloni, Laredo",OPERATIONAL,-3.4503764,43.4324057,"43.4324057,-3.4503764",-3.4503764
Tenis Feygon,"Calle Doctor Gregorio Marañón, 1, Santander",OPERATIONAL,-3.7904686,43.4796405,"43.4796405,-3.7904686",-3.7904686
Pistas De Pádel De Ramales De La Víctoria,"Unnamed Road, 39800, Ramales de la Victoria",OPERATIONAL,-3.4569665,43.26619729999999,"43.26619729999999,-3.4569665",-3.4569665
Pádel La maza,"Bo. la Maza, 9, Arnuero",OPERATIONAL,-3.5679537,43.4769087,"43.4769087,-3.5679537",-3.5679537
Mioño Padel Gym,"Carretera Mioño, s/n, Santullán",OPERATIONAL,-3.2011675,43.3581972,"43.3581972,-3.2011675",-3.2011675
Pista de padel,Santullán,OPERATIONAL,-3.2095953,43.3483846,"43.3483846,-3.2095953",-3.2095953
Pista de pádel Treto,"Bo. Treto, 5442, Bárcena de Cicero",OPERATIONAL,-3.478295,43.3957888,"43.3957888,-3.478295",-3.478295
Padeltoki,"Polígono Granada, Pabellón I, Ortuella",OPERATIONAL,-3.0455709,43.3050772,"43.3050772,-3.0455709",-3.0455709
PADEL INDOOR CENTER | Club de Padel en Barakaldo-Bilbao |,"Kareaga Kalea, 69, Barakaldo",OPERATIONAL,-3.0134221,43.2892072,"43.2892072,-3.0134221",-3.0134221
Pistas Padel Descubierto FADURA,"Los Chopos Etorbidea, 20, Getxo",OPERATIONAL,-3.0017939,43.3504757,"43.3504757,-3.0017939",-3.0017939
Pista de pádel 02,"Kalea Luis Lopez Oses, 1006, Getxo",OPERATIONAL,-3.0060271,43.3317235,"43.3317235,-3.0060271",-3.0060271
Padel&Gol,"Nave 4, Poligono Industrial El Arbol, Santurzi",OPERATIONAL,-3.0493888,43.3203845,"43.3203845,-3.0493888",-3.0493888
Club de Tenis y Pádel Kaialde de Santurtzi,"Reina Victoria Ibilbidea, Santurtzi",OPERATIONAL,-3.025703,43.327737,"43.327737,-3.025703",-3.025703
Pista pádel,"Kalea Luis Lopez Oses, 1006, Getxo",OPERATIONAL,-3.0063563,43.33195509999999,"43.33195509999999,-3.0063563",-3.0063563
Pista de pádel de Gallarta,Gallarta,OPERATIONAL,-3.0752409,43.3198113,"43.3198113,-3.0752409",-3.0752409
Piscinas y Padel Torresolo,"Barrio Artatza, 60, Leioa",OPERATIONAL,-2.9937299,43.32581,"43.32581,-2.9937299",-2.9937299
Club Deportivo Martiartu,"Goiherri-Martiartu Errepidea, 13, Erandio",OPERATIONAL,-2.9644931,43.3394175,"43.3394175,-2.9644931",-2.9644931
Urduliz Kiroldegia,"Iparralde Kalea, 2, Urduliz",OPERATIONAL,-2.9526481,43.3750495,"43.3750495,-2.9526481",-2.9526481
Iparralde Kiroldegia,"Aita Gotzon Kalea, 9, Urduliz",OPERATIONAL,-2.9522766,43.3739601,"43.3739601,-2.9522766",-2.9522766
Pádel Derio Club,"Larrauri Kalea, 1, Derio",OPERATIONAL,-2.8798401,43.2935485,"43.2935485,-2.8798401",-2.8798401
World Padel Gatika,"Naves 5-6, Ugarte",OPERATIONAL,-2.8672474,43.3717269,"43.3717269,-2.8672474",-2.8672474
"Padel Club Social ""EL ABANICO"" Plentzia","Isuskitza Auzoa, 22, Isuskiza",OPERATIONAL,-2.9243039,43.394219,"43.394219,-2.9243039",-2.9243039
Pistas de padel,"Santa Luzia Bidea, 5, Zabaloetxe",OPERATIONAL,-2.9375023,43.3152912,"43.3152912,-2.9375023",-2.9375023
Padel-Pista,Plentzia,OPERATIONAL,-2.9444906,43.4031962,"43.4031962,-2.9444906",-2.9444906
PADELBAI,"Etorbidea Santo Domingo Etorbidea, 10",OPERATIONAL,-2.89052,43.28849,"43.28849,-2.89052",-2.89052
Club Deportivo Landabarri,"Gaztañatxu Kalea, 16, Derio",OPERATIONAL,-2.8909788,43.3002444,"43.3002444,-2.8909788",-2.8909788
Padel 4 San Sebastián Club Deportivo,"Portuetxe K., 55, Donostia",OPERATIONAL,-2.0169697,43.3007205,"43.3007205,-2.0169697",-2.0169697
Trinkete Ibaeta Pádel,"Igara Bidea, 71, Donostia",OPERATIONAL,-2.0144844,43.3000026,"43.3000026,-2.0144844",-2.0144844
Euskal Padel Federazioa (FVP-EPF),"Errotaburu Pasealekua, 1, 3ª Planta, Donostia-San Sebastian",OPERATIONAL,-2.0035312,43.3010717,"43.3010717,-2.0035312",-2.0035312
EHU Kirol Instalazioak,"Ondarreta Pasealekua, 22, Donostia",OPERATIONAL,-2.0117413,43.3123333,"43.3123333,-2.0117413",-2.0117413
PUMM FEEL,"Calle IRIBAR 2 Pabellón C-21, Donostia",OPERATIONAL,-2.0216642,43.30299189999999,"43.30299189999999,-2.0216642",-2.0216642
Donostiako Tenis Elkarte Erreala,"Eduardo Chillida Pasealekua, 9, Donostia",OPERATIONAL,-2.0050103,43.3197725,"43.3197725,-2.0050103",-2.0050103
Extensión Polideportivo Zarautz,Zarautz,OPERATIONAL,-2.1702451,43.2804246,"43.2804246,-2.1702451",-2.1702451
Orioko Karela Kiroldegia,"Erribera Kalea, 1, Orio",OPERATIONAL,-2.12976,43.277383,"43.277383,-2.12976",-2.12976
Tenis-pistak,"Indamendi Kalea, 16, Zarautz",OPERATIONAL,-2.1593209,43.280364,"43.280364,-2.1593209",-2.1593209
Pinter Tennis,"Ondarreta Pasealekua, 22, Donostia",OPERATIONAL,-2.0122987,43.3124256,"43.3124256,-2.0122987",-2.0122987
padel indoor bidasoa,"Bidaurre-Ureder, 45, D, Irun",OPERATIONAL,-1.8281406,43.3232248,"43.3232248,-1.8281406",-1.8281406
Padel Indoor Oarso,"Egiburuberri Pasealekua Ibilbidea, 15, A, Errenteria",OPERATIONAL,-1.8971061,43.2966709,"43.2966709,-1.8971061",-1.8971061
Federación Guipuzcoana de Pádel,"Pº Anoeta 5, (Edif. Kiroletxea, Donostia",OPERATIONAL,-1.9722402,43.3017923,"43.3017923,-1.9722402",-1.9722402
Pista de pádel 04,"Foru Kalea-arroka, Hondarribia",OPERATIONAL,-1.7960836,43.3752468,"43.3752468,-1.7960836",-1.7960836
Mons kiroldegia,"Julimasene Kalea, 1C, Donostia",OPERATIONAL,-1.9490401,43.3173154,"43.3173154,-1.9490401",-1.9490401
HENDAYE TC,"8 Rue d'Élissacilio, Hendaye",OPERATIONAL,-1.77071,43.37031899999999,"43.37031899999999,-1.77071",-1.77071
Hondartza Kiroldegia,"Foru Kalea, s/n, Hondarribia",OPERATIONAL,-1.7955387,43.3738081,"43.3738081,-1.7955387",-1.7955387
Etxadi Udal Kiroldegia,"Borroto Kalea, 32, Donostia",OPERATIONAL,-1.9886962,43.3020207,"43.3020207,-1.9886962",-1.9886962
"Fortuna Kirol Taldea, Kontxa","Kontxa Pasealekua, 6, Donostia",OPERATIONAL,-1.9869982,43.3167295,"43.3167295,-1.9869982",-1.9869982
BPXport Riberas,"Pablo Gorosabel Kalea, 3, Donostia",OPERATIONAL,-1.9716699,43.3128807,"43.3128807,-1.9716699",-1.9716699
Club Atlético San Sebastián - Aiete-,"Hegaztien Pasealekua, 5, San Sebastián-Donostia",OPERATIONAL,-1.9949307,43.30224,"43.30224,-1.9949307",-1.9949307
"Usallsports, S.L.","C. Gabiria, 2, 1P, Irun",OPERATIONAL,-1.8252314,43.3285499,"43.3285499,-1.8252314",-1.8252314
gaben club deportivo,"Pablo Gorosabel Kalea, 3, Donostia",OPERATIONAL,-1.971606,43.3128736,"43.3128736,-1.971606",-1.971606
Tennis Padel Biarritz Olympique,"Stade d'Aguilera, Rue Cino del Duca, Biarritz",OPERATIONAL,-1.5365515,43.4827795,"43.4827795,-1.5365515",-1.5365515
Central Sport Club,"5588 Vieille Route de Saint-Pée, Saint-Pée-sur-Nivelle",OPERATIONAL,-1.6181811,43.38430779999999,"43.38430779999999,-1.6181811",-1.6181811
Getariako Tenis Elkartea,"Chem. du Trinquet, Guéthary",OPERATIONAL,-1.6123609,43.4190803,"43.4190803,-1.6123609",-1.6123609
Cultural and Sports Center Haitz Pean,"9 All. des Catalpas, Anglet",OPERATIONAL,-1.520197,43.4762237,"43.4762237,-1.520197",-1.520197
Tennis And Padel,"11 All. Orion, Anglet",OPERATIONAL,-1.5129725,43.4953505,"43.4953505,-1.5129725",-1.5129725
Club 64,"8 Rue de la Galupe, Bayonne",OPERATIONAL,-1.4547645,43.4877524,"43.4877524,-1.4547645",-1.4547645
CAMBO LES BAINS TC,"Stade Labeguerie, Cambo-les-Bains",OPERATIONAL,-1.40812,43.359241,"43.359241,-1.40812",-1.40812
Bilbalka,"95 ainaren karrika, Saint-Palais",OPERATIONAL,-1.0460621,43.3213462,"43.3213462,-1.0460621",-1.0460621
Padel Biron Béarn,"1360 Av. Marcel Paul, Biron",OPERATIONAL,-0.7524185999999999,43.4664165,"43.4664165,-0.7524185999999999",-0.7524185999999999
Complexe sportif de Mont,Mont,OPERATIONAL,-0.6583650999999999,43.4365347,"43.4365347,-0.6583650999999999",-0.6583650999999999
Padel Factory,"5 Chem. Fourcet, Lescar",OPERATIONAL,-0.4368775,43.3253176,"43.3253176,-0.4368775",-0.4368775
French Padel Shop Pau,"69 Av. Didier Daurat, Lons",OPERATIONAL,-0.3803328,43.3334295,"43.3334295,-0.3803328",-0.3803328
Sports Centre Les Bruyeres,"79 Bd de la Paix, Pau",OPERATIONAL,-0.3365283,43.3152443,"43.3152443,-0.3365283",-0.3365283
BRUYERES (LES) TC,"79 Bd de la Paix, Pau",OPERATIONAL,-0.337,43.31507999999999,"43.31507999999999,-0.337",-0.337
Luy du Béarn TC,"10 Rue Aristide Finco, Serres-Castet",OPERATIONAL,-0.3768421,43.3773252,"43.3773252,-0.3768421",-0.3768421
Sportiempo,"Imp. de Gouadoulau, Artix",OPERATIONAL,-0.5582982,43.3889117,"43.3889117,-0.5582982",-0.5582982
LACQ-ARTHEZ TC,"Mairie de Lacq, Sault-de-Navailles",OPERATIONAL,-0.61824,43.413349,"43.413349,-0.61824",-0.61824
World Soccer Indoor,"1 Rue de Monhauba, Lons",OPERATIONAL,-0.4313701,43.3073998,"43.3073998,-0.4313701",-0.4313701
TENNISPRO - LARDESPORT PAU,"28 Rte de Bayonne, Billère",OPERATIONAL,-0.390357,43.299134,"43.299134,-0.390357",-0.390357
Comité des Pyrénées-Atlantiques de Tennis,"12 Rue du Professeur Garrigou-Lagrange, Pau",OPERATIONAL,-0.3712813,43.3187522,"43.3187522,-0.3712813",-0.3712813
Rugby Park 64 IDRON - PAU,"19 Av. du Camp, Idron",OPERATIONAL,-0.2993392,43.3016175,"43.3016175,-0.2993392",-0.2993392
RUGBY PARK 64,"19 avenue du Camps 64320 IDRON, Sendets",OPERATIONAL,-0.3016618,43.3014537,"43.3014537,-0.3016618",-0.3016618
VIC BIGORRE TENNIS CLUB,"Stade Municipal, Route de Pau, Vic-en-Bigorre",OPERATIONAL,0.0479569,43.3854057,"43.3854057,0.0479569",0.0479569
CARBONNE OLYMPIQUE TENNIS CLUB,"Stade Alfred Prévost, Carbonne",OPERATIONAL,1.22576,43.294811,"43.294811,1.22576",1.22576
Padel Time,"ZI Lavigne, 6 Voie Hélios, Auterive",OPERATIONAL,1.4485967,43.3658732,"43.3658732,1.4485967",1.4485967
Club On Padel,"Chem. de la Masquere, Escalquens",OPERATIONAL,1.5327476,43.5188047,"43.5188047,1.5327476",1.5327476
VENERQUE TENNIS CLUB,"Av. de sous Roches, Venerque",OPERATIONAL,1.4433688,43.4329975,"43.4329975,1.4433688",1.4433688
ROQUES OLYMPIC TENNIS CLUB,"Pl. Jean Jaurès, Roques",OPERATIONAL,1.375562,43.509064,"43.509064,1.375562",1.375562
MONTGISCARD TENNIS CLUB,"Chem. des Galériens, Montgiscard",OPERATIONAL,1.564797,43.462109,"43.462109,1.564797",1.564797
tennispulsion,"Av. Julien Nouguier, Revel",OPERATIONAL,2.01356,43.4523409,"43.4523409,2.01356",2.01356
Béziers Padel Club,"5 Av. Henri Galinier, Béziers",OPERATIONAL,3.2001782,43.3385694,"43.3385694,3.2001782",3.2001782
BIP - Béziers Indoor Padel,"ZAC de Mazeran, 44 Rue Suzanne Noel, Béziers",OPERATIONAL,3.2487922,43.3643852,"43.3643852,3.2487922",3.2487922
Tennis-Club Mon Plaisir,"2 Rue de la Grangette, Thézan-lès-Béziers",OPERATIONAL,3.1624268,43.4235741,"43.4235741,3.1624268",3.1624268
Restaurant Ma Chariotte au Béziers Padel Club,"5 Av. Henri Galinier, Béziers",OPERATIONAL,3.2000824,43.3385865,"43.3385865,3.2000824",3.2000824
BEZIERS TENNIS PRESIDENTE BARTE,"av jean blattes, Béziers",OPERATIONAL,3.1907758,43.3395996,"43.3395996,3.1907758",3.1907758
Tennis De La Vière,"Domaine de route de Montblanc, Saint-Thibéry",OPERATIONAL,3.4011714,43.3812141,"43.3812141,3.4011714",3.4011714
"Player 5M (Futsal, Badminton, Padel, Squash, Musculation)","ZAC la Capucière, Bessan",OPERATIONAL,3.4271789,43.373057,"43.373057,3.4271789",3.4271789
Crocodil's Servian Beziers,"Zone d'aménagement concerté La Baume, Servian",OPERATIONAL,3.3116722,43.38827879999999,"43.38827879999999,3.3116722",3.3116722
TCM TOURBES,"rue du stade, Agde",OPERATIONAL,3.4777318,43.3133343,"43.3133343,3.4777318",3.4777318
SÈTE PADEL CLUB,"9 rue de dublin Parc aquatechnique, Sète",OPERATIONAL,3.707284,43.4207488,"43.4207488,3.707284",3.707284
TENNIS PADEL CAP D'AGDE,"Centre International de Tennis, 3 Av. de la Vigne, Agde",OPERATIONAL,3.51037,43.290104,"43.290104,3.51037",3.51037
International Tennis Center,"3 Av. de la Vigne, Cap d'Agde (Le",OPERATIONAL,3.5095022,43.2899219,"43.2899219,3.5095022",3.5095022
TCM Villeveyrac,"Rue des Oliviers, Villeveyrac",OPERATIONAL,3.6702736,43.4938305,"43.4938305,3.6702736",3.6702736
Z5 Padel Istres,"Rte de la Cabane Noire, Istres",OPERATIONAL,4.9959462,43.4749902,"43.4749902,4.9959462",4.9959462
Park Club Arbois - Padel Tennis,"Rte de Calas, Cabriès",OPERATIONAL,5.3660035,43.4267784,"43.4267784,5.3660035",5.3660035
ALL IN PADEL SPORTS,"Decathlon Village (Parking Sud) Rn 8 La Petite Bastide, avenue des Chabauds, Bouc-Bel-Air",OPERATIONAL,5.400238,43.430164,"43.430164,5.400238",5.400238
Work And Padel Hopps,"PARC PICHAURY, 1330 Rue Jean René Guillibert Gauthier de la Lauzière, Aix-en-Provence",OPERATIONAL,5.3670886,43.4744435,"43.4744435,5.3670886",5.3670886
Z5 Padel Aix,"205 Av. du 12 Juillet 1998, Aix-en-Provence",OPERATIONAL,5.3971455,43.4791322,"43.4791322,5.3971455",5.3971455
Le 13 by Puma - Foot en salle - Marseille,"18 Bd Frédéric Sauvage, Marseille",OPERATIONAL,5.370389599999999,43.33370070000001,"43.33370070000001,5.370389599999999",5.370389599999999
AS ROGNAC TENNIS,"19 Mnt du Belvédère, Rognac",OPERATIONAL,5.2445816,43.4767941,"43.4767941,5.2445816",5.2445816
Mondial Soccer Martigues,"26 Av. Charles Moulet, Martigues",OPERATIONAL,5.0265179,43.40826250000001,"43.40826250000001,5.0265179",5.0265179
Padel Marseille,"92 Chem. des Accates, Marseille",OPERATIONAL,5.4927682,43.30179589999999,"43.30179589999999,5.4927682",5.4927682
Padel Bocage,"All. Pierre de Coubertin, Plan-de-Cuques",OPERATIONAL,5.4599962,43.3396911,"43.3396911,5.4599962",5.4599962
WORK AND PADEL PIOLINE,"Chem. de la Pioline, Aix-en-Provence",OPERATIONAL,5.4087401,43.5085107,"43.5085107,5.4087401",5.4087401
ALL IN PADEL ASSOCIATION,"Petite Bastide Village Decathlon, Bouc-Bel-Air",OPERATIONAL,5.400237,43.430161,"43.430161,5.400237",5.400237
AUC TENNIS - PADEL,"COMPLEXE SPORTIF DU VAL DE l'ARC, Aix-en-Provence",OPERATIONAL,5.4665057,43.511,"43.511,5.4665057",5.4665057
Tennis Padel Club Peynier,"La Garenne, Peynier",OPERATIONAL,5.633185000000001,43.4465984,"43.4465984,5.633185000000001",5.633185000000001
Tennis Park de Marseille | Tennis & Padel,"92 Chem. des Accates, Marseille",OPERATIONAL,5.492686,43.3020523,"43.3020523,5.492686",5.492686
Tennis Padel AUC du Val de l'Arc,"30 Av. des Infirmeries, Aix-en-Provence",OPERATIONAL,5.4662489,43.5104289,"43.5104289,5.4662489",5.4662489
WORK AND PADEL,"PARC PICHAURY, 1330 Rue Jean René Guillibert Gauthier de la Lauzière, Aix-en-Provence",OPERATIONAL,5.3672561,43.4744786,"43.4744786,5.3672561",5.3672561
TENNIS PADEL CLUB PEYNIER,"34 Résidence Lotissement les Audrics, Trets",OPERATIONAL,5.641302,43.447826,"43.447826,5.641302",5.641302
Tennis Club,"260 Rue Guillaume Du Vair Pole, Aix-en-Provence",OPERATIONAL,5.404897999999999,43.509156,"43.509156,5.404897999999999",5.404897999999999
Tennis Padel Club de Nans Les Pins,"100 Allée Paulette et Jacques Tomei Route de, Chem. de Pierrefeu, Nans-les-Pins",OPERATIONAL,5.777671100000001,43.3743662,"43.3743662,5.777671100000001",5.777671100000001
TRETS TENNIS-PADEL CLUB,"6 Allée Cézanne, Trets",OPERATIONAL,5.700552,43.445164,"43.445164,5.700552",5.700552
AS TENNIS PADEL LUCOIS,"Av. Pierre Mendès France, Le Luc",OPERATIONAL,6.30617,43.386501,"43.386501,6.30617",6.30617
Assoc Sportive Tennis Lucois,"Avenue Pierre Mendès France, Quartier, Les Basses Retraches, Le Luc",OPERATIONAL,6.3069094,43.3864407,"43.3864407,6.3069094",6.3069094
TENNIS PADEL DE LORGUES,"Bd Réal Calamar, Lorgues",OPERATIONAL,6.367901199999999,43.4940821,"43.4940821,6.367901199999999",6.367901199999999
Tc Roquebrune Les Issambres | Tennis & Paddle,D559 En face de la salle Robert Manuel,OPERATIONAL,6.713111500000001,43.3461399,"43.3461399,6.713111500000001",6.713111500000001
Pad&Ball | Padel | Football | Frejus,"1810 Rte de Malpasset, Fréjus",OPERATIONAL,6.741678299999999,43.4593396,"43.4593396,6.741678299999999",6.741678299999999
Bruno PADEL,"291 Av. Général Norbert Riera, Fréjus",OPERATIONAL,6.747703899999999,43.447756,"43.447756,6.747703899999999",6.747703899999999
SAINT RAPHAEL CC,"237 Boulevard Jacques Baudino, Saint-Raphaël",OPERATIONAL,6.807242,43.433308,"43.433308,6.807242",6.807242
La Toupie Bleue,"205 Allée du Domaine du Lac, Puget-sur-Argens",OPERATIONAL,6.667554099999999,43.4568317,"43.4568317,6.667554099999999",6.667554099999999
ULTRA CAP ESTEREL,"2975 Bd de la 36ème division du Texas, Saint-Raphaël",OPERATIONAL,6.856260000000001,43.4257875,"43.4257875,6.856260000000001",6.856260000000001
Rastel d'Agay,"Unnamed Road, 83700, Saint-Raphaël",OPERATIONAL,6.8678259,43.4432325,"43.4432325,6.8678259",6.8678259
Padel Hossegor,"36 Pl. du Stade, Soorts-Hossegor",OPERATIONAL,-1.4168354,43.6608649,"43.6608649,-1.4168354",-1.4168354
CLUB DE L’ADOUR,"89 Av. du 1er Mai, Tarnos",OPERATIONAL,-1.496663,43.53635300000001,"43.53635300000001,-1.496663",-1.496663
Complexe Tennis Tyrosse,"Plaine des Sportd, Av. du Poun de Burry, Saint-Vincent-de-Tyrosse",OPERATIONAL,-1.2864195,43.6762899,"43.6762899,-1.2864195",-1.2864195
TOSSE TC,"Av. du Général de Gaulle, Saint-Vincent-de-Tyrosse",OPERATIONAL,-1.32959,43.69295899999999,"43.69295899999999,-1.32959",-1.32959
TYROSSE US,"26 Voie Romaine, Saubion",OPERATIONAL,-1.287758,43.674961,"43.674961,-1.287758",-1.287758
Hossegor Tennis Club,"36 Pl. du Stade, Soorts-Hossegor",OPERATIONAL,-1.4200916,43.6629023,"43.6629023,-1.4200916",-1.4200916
SOUSTONS AS,"Plaine l'Isle Verte, Rue du Collège, Soustons",OPERATIONAL,-1.33348,43.753792,"43.753792,-1.33348",-1.33348
CAPBRETON GAILLOU TC,"Avenue du Gaillou, Capbreton",OPERATIONAL,-1.4267303,43.6318894,"43.6318894,-1.4267303",-1.4267303
PEYREHORADE TC,"364 Av. Jean Dupaya, Peyrehorade",OPERATIONAL,-1.0913603,43.5485245,"43.5485245,-1.0913603",-1.0913603
US DAX Tennis,"4 Rue des Prairies, Dax",OPERATIONAL,-1.0599597,43.7186145,"43.7186145,-1.0599597",-1.0599597
le squash,"ilot campus, 2128 Av. de la Résistance, Saint-Paul-lès-Dax",OPERATIONAL,-1.0775916,43.7270388,"43.7270388,-1.0775916",-1.0775916
NARROSSE AS,"Rte des Pyrénées, Narrosse",OPERATIONAL,-1.0093418,43.6929566,"43.6929566,-1.0093418",-1.0093418
AUCH TENNIS CLUB,"Bassin de Lescat, Rue de Barran, Auch",OPERATIONAL,0.5786705,43.6408271,"43.6408271,0.5786705",0.5786705
4PADEL Toulouse-Colomiers,"19 Av. Georges Guynemer, Colomiers",OPERATIONAL,1.3434,43.6188031,"43.6188031,1.3434",1.3434
LE FIVE COLOMIERS,"19 Rue Georges Guynemer, Toulouse",OPERATIONAL,1.3434047,43.6189694,"43.6189694,1.3434047",1.3434047
FONSORBES TENNIS CLUB,"Rue Luigi Amadio, Fonsorbes",OPERATIONAL,1.2363392,43.532777,"43.532777,1.2363392",1.2363392
SAINT LYS T.C OLYMPIQUE,"15 Chem. de Pillore, Saint-Lys",OPERATIONAL,1.186297,43.514305,"43.514305,1.186297",1.186297
MERVILLE TENNIS CLUB,"86 Rue des Ecoles, Merville",OPERATIONAL,1.2924258,43.7222428,"43.7222428,1.2924258",1.2924258
SEGOUFIELLE TENNIS CLUB,"Terrains des Sports, Ségoufielle",OPERATIONAL,1.133133,43.630975,"43.630975,1.133133",1.133133
ISLE JOURDAIN TENNIS CLUB,"route du Bataillon d'Armagnac, L'Isle-Jourdain",OPERATIONAL,1.0739464,43.6176442,"43.6176442,1.0739464",1.0739464
Toulouse Padel Club & Squash,"11 Rue Marie-Louise Dissard, Toulouse",OPERATIONAL,1.3668958,43.60151140000001,"43.60151140000001,1.3668958",1.3668958
Padel tolosa,"55 Av. Louis Breguet, Toulouse",OPERATIONAL,1.4762483,43.5781299,"43.5781299,1.4762483",1.4762483
Open de France de Padel,"16 Rue de Bayard, Toulouse",OPERATIONAL,1.447773,43.6087465,"43.6087465,1.447773",1.447773
Olympe Tennis Padel Club Toulouse,"200 Rte de Blagnac, Toulouse",OPERATIONAL,1.402732,43.6258027,"43.6258027,1.402732",1.402732
Paddle Plus,"39 Chem. du Moulin de Naudin, Blagnac",OPERATIONAL,1.3880343,43.6522903,"43.6522903,1.3880343",1.3880343
Cap Loisirs,"Av. de Saint-Caprais, L'Union",OPERATIONAL,1.4791115,43.6439326,"43.6439326,1.4791115",1.4791115
SPORTS REGION OCCITANIE - PADEL Consortium,"4 Imp. Colbert, Blagnac",OPERATIONAL,1.3945703,43.62525979999999,"43.62525979999999,1.3945703",1.3945703
Club de l'Hers,"23 Av. de la Marqueille, Saint-Orens-de-Gameville",OPERATIONAL,1.5271316,43.56191949999999,"43.56191949999999,1.5271316",1.5271316
Stade Toulousain Padel,Toulouse,CLOSED_TEMPORARILY,1.4116766,43.6221976,"43.6221976,1.4116766",1.4116766
PIN BALMA TENNIS CLUB,"Rte des Sports, Pin-Balma",OPERATIONAL,1.533025,43.628137,"43.628137,1.533025",1.533025
BALMA TENNIS CLUB,"17 Av. des Aérostiers, Balma",OPERATIONAL,1.486335,43.609001,"43.609001,1.486335",1.486335
Complexe Sportif De Naudin,"27 Chem. du Moulin de Naudin, Blagnac",OPERATIONAL,1.3876365,43.6522638,"43.6522638,1.3876365",1.3876365
Sports Raquettes,"222 Av. de Grande Bretagne, Toulouse",OPERATIONAL,1.4099626,43.6024125,"43.6024125,1.4099626",1.4099626
PECHBONNIEU TENNIS CLUB,"Chem. de Labastidole, Pechbonnieu",OPERATIONAL,1.466402,43.70376599999999,"43.70376599999999,1.466402",1.466402
Tennis Club,"4 Rue du Puy de Sancy, L'Union",OPERATIONAL,1.4889614,43.6576818,"43.6576818,1.4889614",1.4889614
CARAMAN TENNIS CLUB,"Lac de l'Orme Blanc, Caraman",OPERATIONAL,1.7487275,43.5287844,"43.5287844,1.7487275",1.7487275
CASTANET TOLOSAN TENNIS CLUB,"2 Rue Georges Vallerey, Castanet-Tolosan",OPERATIONAL,1.49261,43.522343,"43.522343,1.49261",1.49261
Tennis Box by Sports Raquettes,"17 Rte de Castres, Balma",OPERATIONAL,1.4993938,43.5948455,"43.5948455,1.4993938",1.4993938
CASTRES OCCITAN PADEL,"Borde Basse, Castres",OPERATIONAL,2.261811,43.62742,"43.62742,2.261811",2.261811
Tennis Club,"Rte de Sémalens, Lagarrigue",OPERATIONAL,2.162649,43.589317,"43.589317,2.162649",2.162649
madame Padel Cathy,"17 Av. de Capus, Lamalou-les-Bains",OPERATIONAL,3.0799241,43.5968399,"43.5968399,3.0799241",3.0799241
TCM VILLEVEYRAC,"2 rue des oliviers, Villeveyrac",OPERATIONAL,3.595764,43.5005056,"43.5005056,3.595764",3.595764
My Center Palavas - Tennis - Padel - Badminton,"Av. de l'Abbé Brocardi, Palavas-les-Flots",OPERATIONAL,3.929056099999999,43.5326995,"43.5326995,3.929056099999999",3.929056099999999
ASPTT Tennis Padel Grammont,Montpellier,OPERATIONAL,3.9240631,43.6122041,"43.6122041,3.9240631",3.9240631
Eco france Padel,"26 Rue Louis Breguet, Jacou",OPERATIONAL,3.9045574,43.6581868,"43.6581868,3.9045574",3.9045574
ASCH Tennis,"424 Rue de la Valsière, Grabels",OPERATIONAL,3.8295771,43.6552759,"43.6552759,3.8295771",3.8295771
ASCH MONTPELLIER,"domaine damartin, Imp. de la Valsière, Grabels",OPERATIONAL,3.831936999999999,43.652336,"43.652336,3.831936999999999",3.831936999999999
Tennis & Paddle Club De Castries,"297 Chem. de Fondespierre, Castries",OPERATIONAL,3.993873,43.693864,"43.693864,3.993873",3.993873
TENNIS-PADEL MUNICIPAL DE PALAVAS,"Av. de l'Abbé Brocardi, Palavas-les-Flots",OPERATIONAL,3.928711,43.532829,"43.532829,3.928711",3.928711
Le temple du sport,"1446 Av. du Vidourle, Lunel",OPERATIONAL,4.1578777,43.6895277,"43.6895277,4.1578777",4.1578777
ASPTT Montpellier,"237 Rte de Vauguiéres, Montpellier",OPERATIONAL,3.9058489,43.6054995,"43.6054995,3.9058489",3.9058489
RAQUETTE CLUB PORT CAMARGUE,"Av. de l'Hermione, Le Grau-du-Roi",OPERATIONAL,4.139561,43.520325,"43.520325,4.139561",4.139561
Paddle Center,"Esp. Jean Baumel, La Grande-Motte",OPERATIONAL,4.079318,43.556136,"43.556136,4.079318",4.079318
T.C RAPHELOIS,"Chem. de la Cabro d'Or, Arles",OPERATIONAL,4.721416,43.65156899999999,"43.65156899999999,4.721416",4.721416
The Monkey Padel,"2331 Vieux Chemin de Lambesc, Pélissanne",OPERATIONAL,5.1638598,43.6438293,"43.6438293,5.1638598",5.1638598
Country Club Padel,"1195 Chem. des Cruyes, Aix-en-Provence",OPERATIONAL,5.416688400000001,43.568748,"43.568748,5.416688400000001",5.416688400000001
Association Venelloise De Tennis,"Chem. du Collet Redon, Venelles",OPERATIONAL,5.4994802,43.59594490000001,"43.59594490000001,5.4994802",5.4994802
Le Padel du Dragon,"169 Av. du Maréchal Juin, Draguignan",OPERATIONAL,6.470533800000001,43.53060199999999,"43.53060199999999,6.470533800000001",6.470533800000001
Tennis Squash Flayoscais,"480 Chem. de Coulombe, Draguignan",OPERATIONAL,6.4114745,43.5377562,"43.5377562,6.4114745",6.4114745
SAS PADEL RIVIERA,"762 Av. de Tournamy, Mougins",OPERATIONAL,6.9878478,43.6046758,"43.6046758,6.9878478",6.9878478
Country Club de Barbossi | Tennis & Padel,"23 Chem. de Maure-Vieil, Mandelieu-la-Napoule",OPERATIONAL,6.9151193,43.52482699999999,"43.52482699999999,6.9151193",6.9151193
Mouratoglou Country Club,"3550 Rte des Dolines, Biot",OPERATIONAL,7.0608825,43.6204261,"43.6204261,7.0608825",7.0608825
ULTRA FABRON - PADEL et FOOTBALL,"279 Av. de Fabron, Nice",OPERATIONAL,7.210277899999999,43.6927075,"43.6927075,7.210277899999999",7.210277899999999
Padel Tennis Nice Valrose,"65 Av. Valrose, Nice",OPERATIONAL,7.2652192,43.7170524,"43.7170524,7.2652192",7.2652192
Tennis Padel Club,"80 Av. de la Lanterne, Nice",OPERATIONAL,7.2254393,43.6816216,"43.6816216,7.2254393",7.2254393
Tennis Padel Vence,"10 Chem. de la Plaine, Vence",OPERATIONAL,7.1307791,43.70673679999999,"43.70673679999999,7.1307791",7.1307791
Tennis Padel Club Montaleigne,"1 Chem. de l'Estelle, Cagnes-sur-Mer",OPERATIONAL,7.174867099999999,43.69300459999999,"43.69300459999999,7.174867099999999",7.174867099999999
Tennis Stage Et Leçons | Tennis & Padel,"330 Av. Jules Grec, Antibes",OPERATIONAL,7.1178119,43.59060059999999,"43.59060059999999,7.1178119",7.1178119
Tennis Antibes Padel Club la Roseraie,"245 Trav. Fontmerle, Antibes",OPERATIONAL,7.095902400000001,43.5811875,"43.5811875,7.095902400000001",7.095902400000001
"ULTRA CAGNES - TENNIS, PADEL et MULTI-SPORTS","Av. Colonel Jeanpierre, Cagnes-sur-Mer",OPERATIONAL,7.1512807,43.6709767,"43.6709767,7.1512807",7.1512807
NICE SMASH 06. Magasin Padel Squash Tennis à Nice,"200 Av. de la Californie, Nice",OPERATIONAL,7.231496,43.6819819,"43.6819819,7.231496",7.231496
Gsem Tennis,"Chem. du Cimetière de l'Est, Nice",OPERATIONAL,7.303040999999999,43.7450337,"43.7450337,7.303040999999999",7.303040999999999
ASPTT Nice Côte d'Azur Tennis,"274 Rue Albert Camus, Saint-Laurent-du-Var",OPERATIONAL,7.18961,43.6795425,"43.6795425,7.18961",7.18961
Tennis Padel Soleil,"1690 Avenue des Combattants en Afrique du N, Beausoleil",OPERATIONAL,7.419565200000001,43.7474014,"43.7474014,7.419565200000001",7.419565200000001
Padel Eze - Côte d'Azur,"861 Bd du Maréchal Leclerc, Èze",OPERATIONAL,7.3532156,43.7335236,"43.7335236,7.3532156",7.3532156
Monte-Carlo International Sports,"41 Av. Hector Otto, Monaco",OPERATIONAL,7.413593100000001,43.73448279999999,"43.73448279999999,7.413593100000001",7.413593100000001
La Turbie Tennis Club,"514 Rte de la Tête de Chien 476, La Turbie",OPERATIONAL,7.400104999999999,43.7381514,"43.7381514,7.400104999999999",7.400104999999999
AZUR TENNIS SPORTS VALROSE,"65 Av. Valrose, Nice",OPERATIONAL,7.265223000000001,43.717721,"43.717721,7.265223000000001",7.265223000000001
MOLIETS TG,"Route de la Plage, Saint-Vincent-de-Tyrosse",OPERATIONAL,-1.37717,43.846241,"43.846241,-1.37717",-1.37717
VIEUX BOUCAU CS,"Av. de la Plage, Vieux-Boucau-les-Bains",OPERATIONAL,-1.4028178,43.7869065,"43.7869065,-1.4028178",-1.4028178
CASTETS TC,"Stade Municipal, Route du, Castets",OPERATIONAL,-1.1376963,43.88027950000001,"43.88027950000001,-1.1376963",-1.1376963
LINXE RC,"127 Rue du Stade, Linxe",OPERATIONAL,-1.25157,43.919769,"43.919769,-1.25157",-1.25157
Ligue Tennis Nouvelle Aquitaine Pôle Tartas,"Chemin d'Ous Pins, 61 Rte des Sports, Tartas",OPERATIONAL,-0.8207104,43.8402958,"43.8402958,-0.8207104",-0.8207104
PADELNBLOCK - 40090,"191 ALL DE MAMOURA, Saint-Avit",OPERATIONAL,-0.436983,43.92115700000001,"43.92115700000001,-0.436983",-0.436983
Stade Montois Tennis,"453 Chem. des Sports, Mont-de-Marsan",OPERATIONAL,-0.4800799999999999,43.8969345,"43.8969345,-0.4800799999999999",-0.4800799999999999
AUZAN TENNIS CLUB,"Lac de Coucut, Castelnau-d'Auzan-Labarrère",OPERATIONAL,0.084016,43.948997,"43.948997,0.084016",0.084016
NOGARO-LE HOUGA TENNIS CLUB,"Stade Municipal, Nogaro",OPERATIONAL,-0.031266,43.77103,"43.77103,-0.031266",-0.031266
Une Corde à Ma Raquette,"643 Rte de Paulhac, Bessières",OPERATIONAL,1.6004232,43.7905329,"43.7905329,1.6004232",1.6004232
Padel Club Albigeois,"3 rue Aimé Cathala, Puygouzon",OPERATIONAL,2.164092,43.8929383,"43.8929383,2.164092",2.164092
Winwin Padel Club Des Haut De Nimes,"620 Chem. des Hauts de Nîmes, Nîmes",OPERATIONAL,4.2922449,43.8614564,"43.8614564,4.2922449",4.2922449
HAUTS DE NIMES PADEL CLUB,"620 Chem. des Hauts de Nîmes, Nîmes",OPERATIONAL,4.292629,43.8618717,"43.8618717,4.292629",4.292629
Tennis Padel Club Carreau de Lanes,"1530 Chem. du Carreau de Lanes, Nîmes",OPERATIONAL,4.3052321,43.82622569999999,"43.82622569999999,4.3052321",4.3052321
Pro Padel,"200 Rue Paul Laurent, Nîmes",OPERATIONAL,4.3642619,43.8089352,"43.8089352,4.3642619",4.3642619
My Padel Store,"Le Polygone, 1950 Av. Marechal Juin Bat B, Nîmes",OPERATIONAL,4.3349511,43.8165103,"43.8165103,4.3349511",4.3349511
CLUB TENNIS FOREVER NIMES,"1530 Chem. du Carreau de Lanes, Nîmes",OPERATIONAL,4.3050576,43.8263106,"43.8263106,4.3050576",4.3050576
AS BOUILLARGUES,"3 Chem. des Écureuils, Bouillargues",OPERATIONAL,4.41709,43.799294,"43.799294,4.41709",4.41709
Le Hangar - Foot & Padel,"370 All. des Issards, Rochefort-du-Gard",OPERATIONAL,4.7364584,43.9570899,"43.9570899,4.7364584",4.7364584
BALL CONCEPT Monplaisir Futsal-Squash-Badminton-Padel tennis-foot5-Laser Concept-Laser Kart-Trike,"948 Rte de Realpanier, Avignon",OPERATIONAL,4.8707766,43.9521998,"43.9521998,4.8707766",4.8707766
VEDENE TENNIS CLUB,"résidence le Nelly, Saint-Saturnin-lès-Avignon",OPERATIONAL,4.909164,43.978139,"43.978139,4.909164",4.909164
Provence Padel,"126 Chem. des Confinés, Châteauneuf-de-Gadagne",OPERATIONAL,4.9504351,43.93779749999999,"43.93779749999999,4.9504351",4.9504351
T.C CAVAILLON,"Grand'Rue, Cheval-Blanc",OPERATIONAL,5.040781,43.836605,"43.836605,5.040781",5.040781
The manosque Sports Complex,"Rue de l'Origan, Manosque",OPERATIONAL,5.8105408,43.8017659,"43.8017659,5.8105408",5.8105408
Tennis de la Madone,"5 Rue Paul Morillot, Menton",OPERATIONAL,7.4870319,43.7673759,"43.7673759,7.4870319",7.4870319
Barabino Padel Center Sanremo,"Via Barabino, 12, Sanremo",OPERATIONAL,7.760909499999999,43.8095081,"43.8095081,7.760909499999999",7.760909499999999
Tennis Padel Accademy Sanremo,"Str. Solaro, 109/B, Sanremo",OPERATIONAL,7.751063299999999,43.81378549999999,"43.81378549999999,7.751063299999999",7.751063299999999
Sanremo Padel Team,"Corso Matuzia, 28, Sanremo",OPERATIONAL,7.757290100000001,43.80990269999999,"43.80990269999999,7.757290100000001",7.757290100000001
Tennis padel Quadrifoglio,"Via Roma, 189, Vallecrosia",OPERATIONAL,7.6463999,43.7978897,"43.7978897,7.6463999",7.6463999
Padel Solaro Sanremo,"Str. Solaro, 111, Sanremo",OPERATIONAL,7.749844899999999,43.8131644,"43.8131644,7.749844899999999",7.749844899999999
Don Quique Padel Imperia,"Via S. Lazzaro, 70, Imperia",OPERATIONAL,8.023303199999999,43.8812268,"43.8812268,8.023303199999999",8.023303199999999
Corcuera Padel Imperia,"Corso Salvador Allende, Imperia",OPERATIONAL,7.985904199999999,43.8800811,"43.8800811,7.985904199999999",7.985904199999999
Don Quique Qupola Indoor Padel,"Località Ruggie, 1, Pontedassio",OPERATIONAL,8.0065958,43.9421124,"43.9421124,8.0065958",8.0065958
Asd Padel Andora,"Via Capri, 21, Andora",OPERATIONAL,8.1398808,43.9469178,"43.9469178,8.1398808",8.1398808
Vida Loca Padel Andora,"Via Sant'Angela, 5, Marina di Andora",OPERATIONAL,8.1423478,43.9578242,"43.9578242,8.1423478",8.1423478
Padel Village,"Strada Porsani, Santo Stefano al mare",OPERATIONAL,7.908166400000001,43.8445587,"43.8445587,7.908166400000001",7.908166400000001
Diano Padel Academy,"Via Cà Rossa, 55, Diano Marina",OPERATIONAL,8.086459099999999,43.9179878,"43.9179878,8.086459099999999",8.086459099999999
Sporting Pinamare Andora Srl,"Viale Argentina, 5, Andora",OPERATIONAL,8.161378599999999,43.9582015,"43.9582015,8.161378599999999",8.161378599999999
ESPERIA Tennis Andora,"Via Sant'Angela, 5, Marina di Andora",OPERATIONAL,8.1432213,43.9579349,"43.9579349,8.1432213",8.1432213
Tennis-Club de Mimizan,"5 Av. de Leslurgues, Mimizan",OPERATIONAL,-1.2719607,44.2061391,"44.2061391,-1.2719607",-1.2719607
PADEL CLUB AGEN,"1371 Av. du Général Leclerc, Le Passage",OPERATIONAL,0.615644,44.190302,"44.190302,0.615644",0.615644
Agen Indoor,"1371 Av. du Général Leclerc, Agen",OPERATIONAL,0.6161409,44.19034569999999,"44.19034569999999,0.6161409",0.6161409
CASTELSARRASIN TENNIS CLUB,"Parc de clairfont, Castelsarrasin",OPERATIONAL,1.100051,44.0521653,"44.0521653,1.100051",1.100051
Padel Tolosa Montauban,"11 Rue Karl Marx, Montauban",OPERATIONAL,1.3630469,44.0412781,"44.0412781,1.3630469",1.3630469
ASSOCIATION TENNIS MONTAUBAN A.T.M,"2145 Rte de Saint-Antonin, Montauban",OPERATIONAL,1.41276,44.0394185,"44.0394185,1.41276",1.41276
Mam' Soccer 5 Padel,"Zone d'activité de la, Imp. de la Micalerie, Boisset-et-Gaujac",OPERATIONAL,4.0065913,44.0560906,"44.0560906,4.0065913",4.0065913
ORANGE RAQUETTES CLUB,"FERME DES COURREGES, Pl. René Clair, Orange",OPERATIONAL,4.831888,44.130672,"44.130672,4.831888",4.831888
Paddle Tennis Carpentras Asptt,"Av. Pierre de Coubertin, Carpentras",OPERATIONAL,5.056461,44.0394441,"44.0394441,5.056461",5.056461
Heat Sport - Foot Salle - PadWall,"ZA CAMP BERNARD 81 chemin des gayeres, Sablet",OPERATIONAL,4.9957573,44.1948233,"44.1948233,4.9957573",4.9957573
Padel Arena Loano,"Viale Libia, 3, Loano",OPERATIONAL,8.259262099999999,44.129375,"44.129375,8.259262099999999",8.259262099999999
Hanbury Tennis Club,"Via Michelangelo, 12, Alassio",OPERATIONAL,8.1667635,44.0060226,"44.0060226,8.1667635",8.1667635
A.S.D. Fitness Club,"Via dell'agricoltura e dell'artigianato 13, Toirano",OPERATIONAL,8.2223706,44.12366859999999,"44.12366859999999,8.2223706",8.2223706
Campi da Tennis via del roggetto,Albenga,OPERATIONAL,8.2107776,44.0533667,"44.0533667,8.2107776",8.2107776
Magnolia Sporting Club Albenga,"Via Isonzo, 22, Albenga",OPERATIONAL,8.2184001,44.0502621,"44.0502621,8.2184001",8.2184001
Biscarrosse Olympique Tennis Club,"1359 Av. du Pyla, Biscarrosse",OPERATIONAL,-1.2380877,44.4530588,"44.4530588,-1.2380877",-1.2380877
BISCARROSSE OLYMPIQUE TC,"146 Rue des Muletiers, Biscarrosse",OPERATIONAL,-1.15514,44.392929,"44.392929,-1.15514",-1.15514
BAZAS RAQUETTE,"1 bis Av. de la République, Bazas",OPERATIONAL,-0.224189,44.433582,"44.433582,-0.224189",-0.224189
VILLEFRANCHE DE ROUERGUE T.C,Villefranche-de-Rouergue,OPERATIONAL,1.9987625,44.3553514,"44.3553514,1.9987625",1.9987625
RODEZ TENNIS PADEL,"316 All. du Parc, Onet-le-Château",OPERATIONAL,2.563785,44.401173,"44.401173,2.563785",2.563785
Padel Tolosa Rodez,"ZA les Amourals, Luc-la-Primaube",OPERATIONAL,2.5594828,44.3153745,"44.3153745,2.5594828",2.5594828
Tennis Club,"Rte de la Vallée, Luc-la-Primaube",OPERATIONAL,2.5605008,44.2880233,"44.2880233,2.5605008",2.5605008
LAPALUD TENNIS CLUB,"18 Rue Basse des Pêcheurs, Lapalud",OPERATIONAL,4.688778,44.30412,"44.30412,4.688778",4.688778
TEAM PADEL,"CHEMIN DU CAIRON Z.A. NOTRE DAME, Mondragon",OPERATIONAL,4.7085066,44.2634333,"44.2634333,4.7085066",4.7085066
GRIGNAN TENNIS CLUB,"Quartier, Eautagne, Grignan",OPERATIONAL,4.9063029,44.4155812,"44.4155812,4.9063029",4.9063029
Tennis Club,"Espace 2003, Saint-Paul-Trois-Châteaux",OPERATIONAL,4.781754299999999,44.3538742,"44.3538742,4.781754299999999",4.781754299999999
MIRABEL PIEGON TENNIS CLUB,"lotissement des, Lotissement les Saffres, Mirabel-aux-Baronnies",OPERATIONAL,5.056585,44.303452,"44.303452,5.056585",5.056585
Padel Vis Cuneo,"Viale degli Angeli, 33, Cuneo",OPERATIONAL,7.5462682,44.3796009,"44.3796009,7.5462682",7.5462682
Tennis - A. S. D. Cuneese Tennis,"Corso Monviso, 8, Cuneo",OPERATIONAL,7.5333918,44.38367179999999,"44.38367179999999,7.5333918",7.5333918
Associazione Sportiva Dilettantistica Olmo,"Via della Battaglia, 103, Cuneo",OPERATIONAL,7.535899899999999,44.4172264,"44.4172264,7.535899899999999",7.535899899999999
Tennis Park,"Via Parco della Gioventù, 2, Cuneo",OPERATIONAL,7.553534900000001,44.3884868,"44.3884868,7.553534900000001",7.553534900000001
Boves Padel Club,"Via Cuneo, 151, Boves",OPERATIONAL,7.5582813,44.3532172,"44.3532172,7.5582813",7.5582813
Area Padel Prato Nevoso,"Via Corona Boreale, 45, Prato Nevoso",OPERATIONAL,7.7810686,44.25260189999999,"44.25260189999999,7.7810686",7.7810686
Mondovì Sporting Padel Club,"Strada delle Oche, 10, Mondovì",OPERATIONAL,7.8172462,44.37300399999999,"44.37300399999999,7.8172462",7.8172462
Padel Savona - SSD Savona Sport a R.L.,"Via alla Rocca, 62, Savona",OPERATIONAL,8.4605227,44.3047529,"44.3047529,8.4605227",8.4605227
Dive padel,"Località Spinetta, 81, Case Lidora",OPERATIONAL,8.2677064,44.365688,"44.365688,8.2677064",8.2677064
Padel Ferrania,"Viale della Libertà, 66, Ferrania",OPERATIONAL,8.3179683,44.3586471,"44.3586471,8.3179683",8.3179683
BOCA Savona Padel S.S.D. a R.L.,"Via Stalingrado, 15r, Savona",OPERATIONAL,8.4659332,44.3013023,"44.3013023,8.4659332",8.4659332
Padel Touch Bassin D'Arcachon,"247 Av. Abbé Edmé Mariotte, La Teste-de-Buch",OPERATIONAL,-1.121742,44.607642,"44.607642,-1.121742",-1.121742
Paddle Arcachon,"7 Av. du Parc, Arcachon",OPERATIONAL,-1.1900827,44.651364,"44.651364,-1.1900827",-1.1900827
GUJAN MESTRAS TC,"Rue Dejean Castaing, Gujan-Mestras",OPERATIONAL,-1.071189,44.635731,"44.635731,-1.071189",-1.071189
CAZAUX TC,"68 Rue Raymond Sanchez, CAZAUX",OPERATIONAL,-1.1457899,44.5458374,"44.5458374,-1.1457899",-1.1457899
MIOS US,"All. de la Plage, Mios",OPERATIONAL,-0.9414222999999998,44.6063346,"44.6063346,-0.9414222999999998",-0.9414222999999998
BIGANOS TC,"Rue Pierre de Coubertin, Biganos",OPERATIONAL,-0.976487,44.637329,"44.637329,-0.976487",-0.976487
AUDENGE TC,"8 B Rd Point des Alouettes, Audenge",OPERATIONAL,-1.015512,44.68399,"44.68399,-1.015512",-1.015512
stages tennis multisports,"Rte de Louchats, Hostens",OPERATIONAL,-0.6486834,44.5248287,"44.5248287,-0.6486834",-0.6486834
MY PADEL,"Allée de l'Agrostis zone des, Rte des Grands Pins, Ayguemorte-les-Graves",OPERATIONAL,-0.4993502,44.6907275,"44.6907275,-0.4993502",-0.4993502
BEAUTIRAN AS,"Plaine des Sports Calens, Saint-Selve",OPERATIONAL,-0.4639760000000001,44.700401,"44.700401,-0.4639760000000001",-0.4639760000000001
PODENSAC TC,"2 Rue du Port, Podensac",OPERATIONAL,-0.354514,44.65075299999999,"44.65075299999999,-0.354514",-0.354514
TERRES DE SPORTS,"92 Av. du Général de Gaulle, La Brède",OPERATIONAL,-0.5175288,44.6884538,"44.6884538,-0.5175288",-0.5175288
LANGON TC,"Av. des Résistants, Langon",OPERATIONAL,-0.252276,44.547771,"44.547771,-0.252276",-0.252276
SAUVETERRE TC,"Mairie, Sauveterre-de-Guyenne",OPERATIONAL,-0.0866408999999999,44.69230650000001,"44.69230650000001,-0.0866408999999999",-0.0866408999999999
FIRMI - DECAZEVILLE TENNIS CLUB,"Av. Léon Blum, Decazeville",OPERATIONAL,2.242982,44.562939,"44.562939,2.242982",2.242982
Tennis Club,"quartier de, Chp de Beaufort, Villeneuve-de-Berg",OPERATIONAL,4.50099,44.556738,"44.556738,4.50099",4.50099
MONTELIMAR TC,"15 rue des amandiers, La Laupie",OPERATIONAL,4.751251,44.534615,"44.534615,4.751251",4.751251
VIVIERS TC,"1 Chem. de Valpeyrouse, Viviers",OPERATIONAL,4.6795366,44.48261670000001,"44.48261670000001,4.6795366",4.6795366
Officina del Padel,"Via Dr.Ezio Giraudo, 10, Villafalletto",OPERATIONAL,7.544937999999999,44.5455835,"44.5455835,7.544937999999999",7.544937999999999
Granda Padel,"Via Artigianato, 14, Savigliano",OPERATIONAL,7.673253499999999,44.6491029,"44.6491029,7.673253499999999",7.673253499999999
Centallo Padel,Centallo,OPERATIONAL,7.5851387,44.4955766,"44.4955766,7.5851387",7.5851387
Circolo tennis centallese Matteo Costamagna,"Viale Vittorio Veneto, 5, Centallo",OPERATIONAL,7.586382799999999,44.49865459999999,"44.49865459999999,7.586382799999999",7.586382799999999
I Platani Tennis & Sport Village,"Via Salmour, 70, Fossano",CLOSED_TEMPORARILY,7.7499208,44.5552787,"44.5552787,7.7499208",7.7499208
Padel Club Bra,"Via Senatore Giovanni Sartori, 29, Bra",OPERATIONAL,7.839459799999999,44.7059125,"44.7059125,7.839459799999999",7.839459799999999
Wepadel S.r.l.,"Corso Piave, 70, Alba",OPERATIONAL,8.023436199999999,44.6919501,"44.6919501,8.023436199999999",8.023436199999999
A.S.D Padel's Island,"Str. Borgo S. Martino, Pocapaglia",OPERATIONAL,7.8893762,44.6975129,"44.6975129,7.8893762",7.8893762
PORGE AS,"4 bis avenue de, Chem. de Gleysaou, Le Porge",OPERATIONAL,-1.0920407,44.87241119999999,"44.87241119999999,-1.0920407",-1.0920407
ARES TC,"Rue du Temple, Arès",OPERATIONAL,-1.131588,44.772337,"44.772337,-1.131588",-1.131588
Big Padel,"Décathlon Village, 5 Rue Hipparque, Mérignac",OPERATIONAL,-0.6799839999999999,44.8287376,"44.8287376,-0.6799839999999999",-0.6799839999999999
4PADEL Bordeaux,"9 Rue Dumont d'Urville Entrée A, Bordeaux",OPERATIONAL,-0.5594688999999999,44.8799171,"44.8799171,-0.5594688999999999",-0.5594688999999999
Padelcourt,"21 Av. de la Poterie, Gradignan",OPERATIONAL,-0.6349523,44.7736349,"44.7736349,-0.6349523",-0.6349523
SquashBad33 Gradignan,"6 Av. Favard, Gradignan",OPERATIONAL,-0.6028728999999999,44.7864669,"44.7864669,-0.6028728999999999",-0.6028728999999999
GINGA Foot - Sports Complex 100% Brasil,"8 Rue Georges Nègrevergne, Mérignac",OPERATIONAL,-0.678014,44.81810309999999,"44.81810309999999,-0.678014",-0.678014
proshop-tennis,"215 rue de Suzon Au TC Bordeaux, Talence",OPERATIONAL,-0.5795502,44.81225389999999,"44.81225389999999,-0.5795502",-0.5795502
BORDEAUX TC,"Rue de Suzon, Talence",OPERATIONAL,-0.5801909,44.8121948,"44.8121948,-0.5801909",-0.5801909
SquashBad33,"25 Av. Neil Armstrong, Mérignac",OPERATIONAL,-0.6932448,44.839315,"44.839315,-0.6932448",-0.6932448
Squash Bordeaux Sud,"6 Av. Favard, Gradignan",OPERATIONAL,-0.6020019,44.7864218,"44.7864218,-0.6020019",-0.6020019
USTCT - Main Entrance - Tennis talence,"63 Av. de la Marne, Talence",OPERATIONAL,-0.5985429999999999,44.793435,"44.793435,-0.5985429999999999",-0.5985429999999999
PINSAN EYSINES TC,"Rue du Pinsan, Eysines",OPERATIONAL,-0.654712,44.87318399999999,"44.87318399999999,-0.654712",-0.654712
OCEAN TC,"rue de bernaches, Bruges",OPERATIONAL,-0.6165033999999999,44.9003616,"44.9003616,-0.6165033999999999",-0.6165033999999999
VIRELADE TC,"mairie, Bordeaux",OPERATIONAL,-0.6155404999999999,44.8522503,"44.8522503,-0.6155404999999999",-0.6155404999999999
BOUSCAT US,"51 Rue Raymond Lavigne, Le Bouscat",OPERATIONAL,-0.608848,44.865623,"44.865623,-0.608848",-0.608848
Domaine de Rocquevielle,"Domaine de Rocquevielle, 107 Av. Marcel Dassault, Mérignac",OPERATIONAL,-0.7080327,44.8489437,"44.8489437,-0.7080327",-0.7080327
Tennis Club,"5 Rue Hipparque, Mérignac",OPERATIONAL,-0.6799744999999999,44.82908250000001,"44.82908250000001,-0.6799744999999999",-0.6799744999999999
PAREMPUYRE TC,"Rue Camille Montoya, Ludon-Médoc",OPERATIONAL,-0.59739,44.94603300000001,"44.94603300000001,-0.59739",-0.59739
MB Padel - Padel Bordeaux,"18 Rue Claude Bernard, Sainte-Eulalie",OPERATIONAL,-0.4922084,44.9033001,"44.9033001,-0.4922084",-0.4922084
US Cenon Tennis/Padel - Complexe Francis Lafuente,"3 All. Simone Bouluguet, Cenon",OPERATIONAL,-0.5260269,44.8590408,"44.8590408,-0.5260269",-0.5260269
SquashBad33,"25 Rue René Magné 23, Bordeaux",OPERATIONAL,-0.5446331999999999,44.8891086,"44.8891086,-0.5446331999999999",-0.5446331999999999
ARTIGUES TC,"Parc de la mairie, Artigues-près-Bordeaux",OPERATIONAL,-0.4934862,44.8604156,"44.8604156,-0.4934862",-0.4934862
SAINT LOUBES TC,"44 Rue Max Linder, Saint-Loubès",OPERATIONAL,-0.4289646,44.91359809999999,"44.91359809999999,-0.4289646",-0.4289646
ITNL Sarl - TENNIS DE LIBOURNE,"4 Av. du Général de Gaulle, Libourne",OPERATIONAL,-0.2326298,44.9070663,"44.9070663,-0.2326298",-0.2326298
Terrains de padel,"39 Rue du Stade, Sarlat-la-Canéda",OPERATIONAL,1.2283896,44.8756077,"44.8756077,1.2283896",1.2283896
SARLAT TC,"41 bis Rue du Stade, Sarlat-la-Canéda",OPERATIONAL,1.2286373,44.8759335,"44.8759335,1.2286373",1.2286373
GOURDON TENNIS CLUB,"Écoute-S'il-Pleut, Domaine, Gourdon",OPERATIONAL,1.381867,44.73679,"44.73679,1.381867",1.381867
AF Park,"41 Rue de Gutenberg, Aurillac",OPERATIONAL,2.4226469,44.9164266,"44.9164266,2.4226469",2.4226469
LORIOL TENNIS CLUB,"12 Av. de la République, Loriol-sur-Drôme",OPERATIONAL,4.818541,44.749077,"44.749077,4.818541",4.818541
CREST TENNIS CLUB,"Chem. des Plantas, Crest",OPERATIONAL,5.024589499999999,44.7232654,"44.7232654,5.024589499999999",5.024589499999999
Pinerolo Padel asd,"Str. Pascaretto, 7, Pinerolo",OPERATIONAL,7.410876699999999,44.9008647,"44.9008647,7.410876699999999",7.410876699999999
A.S.D. Polisportiva Cavour P.S.,"Via Vigone, 1, Cavour",OPERATIONAL,7.376646200000001,44.7879732,"44.7879732,7.376646200000001",7.376646200000001
Circolo Tennis Pinerolo,"Piazza Matteotti, 12, Pinerolo",OPERATIONAL,7.3239269,44.885025,"44.885025,7.3239269",7.3239269
Padel Tonic,"Via Cav. Domanico Galesso, 1, Pancalieri",OPERATIONAL,7.5847587,44.8409231,"44.8409231,7.5847587",7.5847587
Carma Tennis Padel,"Corso Roma, 24, Carmagnola",OPERATIONAL,7.718618699999999,44.8394324,"44.8394324,7.718618699999999",7.718618699999999
Metropolitan padel,"Via Carmagnola, 28, Caramagna Piemonte",OPERATIONAL,7.7348234,44.78776269999999,"44.78776269999999,7.7348234",7.7348234
Roero Padel Center - Montà,"Via Ferruccio Novo, 1, Montà",OPERATIONAL,7.952314299999999,44.8132517,"44.8132517,7.952314299999999",7.952314299999999
Padel Casa Lenci - Centro Giovani Anziani,"Via Eugenia Burzio, 5, Poirino",OPERATIONAL,7.851664500000001,44.9213829,"44.9213829,7.851664500000001",7.851664500000001
Asti Padel Club,"Via Giovanni Gerbi, 20, Asti",OPERATIONAL,8.1917789,44.8987126,"44.8987126,8.1917789",8.1917789
Padel+ San Damiano,"Via Luigi Einaudi, 7, San Damiano D'asti",OPERATIONAL,8.0602413,44.8337815,"44.8337815,8.0602413",8.0602413
Waya Padel,"Corso Pietro Chiesa, 20, Asti",OPERATIONAL,8.2156445,44.8995775,"44.8995775,8.2156445",8.2156445
LACANAU SSL0,"Rte du Baganais, Lacanau",OPERATIONAL,-1.164974,44.991806,"44.991806,-1.164974",-1.164974
HOURTIN USC,"Communal de Cardin, Hourtin",OPERATIONAL,-1.07655,45.178173,"45.178173,-1.07655",-1.07655
Sports Association Pian Médoc Tennis & Paddle,"260 All. Grammont, Le Pian-Médoc",OPERATIONAL,-0.674715,44.954473,"44.954473,-0.674715",-0.674715
PIAN MEDOC AS,"Mairie, Rue Pasteur, Le Pian-Médoc",OPERATIONAL,-0.6705249999999999,44.954884,"44.954884,-0.6705249999999999",-0.6705249999999999
TENNIS PUGNAC SPORT TPS,"Place de l'eglise, Pugnac",OPERATIONAL,-0.4946208,45.0838964,"45.0838964,-0.4946208",-0.4946208
VAL DE L'ISLE TC,"5 Prom. Charles de Gaulle, Coutras",OPERATIONAL,-0.1352166,45.03822359999999,"45.03822359999999,-0.1352166",-0.1352166
"Tennis Padel Club St Astier - Location, Leçon, Stage, Entrainement ...","Rue Lagrange Chancel, Saint-Astier",OPERATIONAL,0.5303047,45.1420482,"45.1420482,0.5303047",0.5303047
CAP Tennis Padel,"rue Isards Stade Roger Dantou, Périgueux",OPERATIONAL,0.70007,45.1887129,"45.1887129,0.70007",0.70007
COULOUNIEIX CHAMIERS,"Rue Jean Bouin, Périgueux",OPERATIONAL,0.69046,45.175331,"45.175331,0.69046",0.69046
COCC Tennis,"3 Rue Jean Bouin, Coulounieix-Chamiers",OPERATIONAL,0.6932621,45.17500099999999,"45.17500099999999,0.6932621",0.6932621
SAS TENNIS,stade municipal - bourg,OPERATIONAL,0.71385,45.121311,"45.121311,0.71385",0.71385
Tennis Club,"Le Bourg, Rouffignac-Saint-Cernin-de-Reilhac",OPERATIONAL,0.913997,45.1107593,"45.1107593,0.913997",0.913997
O'padel,"Rue Jean Allary, Brive-la-Gaillarde",OPERATIONAL,1.4703729,45.1386299,"45.1386299,1.4703729",1.4703729
Cab Tennis,"114 Av. du 8 Mai 1945, Brive-la-Gaillarde",OPERATIONAL,1.5500222,45.1611074,"45.1611074,1.5500222",1.5500222
MALEMORT ASV,"Rue de l'Ermitage, Ussac",OPERATIONAL,1.5640053,45.1698881,"45.1698881,1.5640053",1.5640053
aux points du jour,"Lachamp ZA de, Lachamp, Saint-Pierre-Eynac",OPERATIONAL,4.006033,45.0610945,"45.0610945,4.006033",4.006033
BOURG DE PEAGE TC,"15 Avenue de la 1ère Armée, Bourg-de-Péage",OPERATIONAL,5.0648928,45.0340249,"45.0340249,5.0648928",5.0648928
MOURS ST EUSEBE TC,"les guinches, complexe sportif, Mours-Saint-Eusèbe",OPERATIONAL,5.0521685,45.0703334,"45.0703334,5.0521685",5.0521685
CHATUZANGE LE GOUBET TC,"580 Chemin de la Pécata, Chatuzange-le-Goubet",OPERATIONAL,5.0907285,45.0061931,"45.0061931,5.0907285",5.0907285
Tennis/Padel St Romans,"118 Chem. des Étangs, Saint-Romans",OPERATIONAL,5.293936899999999,45.1025406,"45.1025406,5.293936899999999",5.293936899999999
ST MARCELLIN TC,"1 Av. de la Saulaie, Saint-Marcellin",OPERATIONAL,5.3161787,45.1580647,"45.1580647,5.3161787",5.3161787
Foot Time,"9 Rue du Maréchal Leclerc, Échirolles",OPERATIONAL,5.7091937,45.1376344,"45.1376344,5.7091937",5.7091937
GIERES TENNIS CLUB,"1 Rue des Sports, Gières",OPERATIONAL,5.7863006,45.18714139999999,"45.18714139999999,5.7863006",5.7863006
Grenoble Tennis,"100 Av. de la Mogne, Grenoble",OPERATIONAL,5.7508922,45.1714726,"45.1714726,5.7508922",5.7508922
L'Aparté Tennis,"150 Chem. de Fond Morelle, Huez",OPERATIONAL,6.0787493,45.0871381,"45.0871381,6.0787493",6.0787493
ALPE D'HUEZ (L) TENNIS CLUB,"Palais Des Sports, Huez",OPERATIONAL,6.068347999999999,45.092624,"45.092624,6.068347999999999",6.068347999999999
Padel Sansicario,"Frazione S. Sicario Alta, San Sicario",OPERATIONAL,6.813567,44.9674462,"44.9674462,6.813567",6.813567
Tennis School Chamois,"Via Melezet, 28, Bardonecchia",OPERATIONAL,6.6936187,45.0717582,"45.0717582,6.6936187",6.6936187
Padel Center Rivoli,"Via Pisa, 26, Rivoli",OPERATIONAL,7.5319036,45.0723653,"45.0723653,7.5319036",7.5319036
San Michele Padel Club,"Via Terzo Reggimento Alpini, Sant'Ambrogio di Torino",OPERATIONAL,7.358021399999998,45.1008996,"45.1008996,7.358021399999998",7.358021399999998
GPADEL Bruino,"Via G. Marconi, 79, Bruino",OPERATIONAL,7.480650599999999,45.0117238,"45.0117238,7.480650599999999",7.480650599999999
Sporting Club Villar dora,"Via Solero, Villar Dora",OPERATIONAL,7.3816343,45.1128925,"45.1128925,7.3816343",7.3816343
Green Village Club,"Via delle Maddalene, 11, Avigliana",OPERATIONAL,7.394461799999999,45.0636664,"45.0636664,7.394461799999999",7.394461799999999
4SIDE Padel Servais,"Via Giovanni Servais 200/A, 3, Torino",OPERATIONAL,7.6155285,45.087078,"45.087078,7.6155285",7.6155285
Padel Country Club Torino,"Corso Moncalieri, 346, Torino",OPERATIONAL,7.6751474,45.028059,"45.028059,7.6751474",7.6751474
PMS Padel Moncalieri,"Via Luigi Einaudi, 44, Moncalieri",OPERATIONAL,7.6862983,44.9967513,"44.9967513,7.6862983",7.6862983
PadelCity Sport Friendly,"Via Giuseppe Peano, 70, Leinì",OPERATIONAL,7.726976499999998,45.152614,"45.152614,7.726976499999998",7.726976499999998
Padel Maffei,"Via Spoleto, 9, Torino",OPERATIONAL,7.6538831,45.0876927,"45.0876927,7.6538831",7.6538831
Padel Nostrum,"Piazza Teresa Noce, 17, Torino",OPERATIONAL,7.6858437,45.0904706,"45.0904706,7.6858437",7.6858437
Borgaro22 Padel Center,"Via XX Settembre, 8, Borgaro torinese",OPERATIONAL,7.652884299999999,45.15299659999999,"45.15299659999999,7.652884299999999",7.652884299999999
Ruffini Padel Club Torino,"Via S Paolo, 160, Torino",OPERATIONAL,7.635913199999999,45.0571651,"45.0571651,7.635913199999999",7.635913199999999
Enjoy Padel Candiolo,Candiolo,OPERATIONAL,7.5984962,44.9555844,"44.9555844,7.5984962",7.5984962
Brangi's Padel Botticelli,"Via Sandro Botticelli, 217, Torino",OPERATIONAL,7.7148418,45.0963445,"45.0963445,7.7148418",7.7148418
Padel Maniak Sassi,"Via Friedrich Nietzsche, 155, Torino",OPERATIONAL,7.728175200000001,45.0858683,"45.0858683,7.728175200000001",7.728175200000001
Viso Sporting Club,"Corso C. G. Allamano, 25, Grugliasco",OPERATIONAL,7.583808400000001,45.0525751,"45.0525751,7.583808400000001",7.583808400000001
GPADEL Borgaro,"Via Lombardia, 6, Borgaro torinese",OPERATIONAL,7.6575482,45.1380813,"45.1380813,7.6575482",7.6575482
Padel Village Panezza,"Via dei Prati, 16, Pianezza",OPERATIONAL,7.5587672,45.0986459,"45.0986459,7.5587672",7.5587672
"Padel M2 - Campi, Coperture e Protezioni Padel Italia","Corso Casale, 132, Torino",OPERATIONAL,7.716296799999999,45.0684182,"45.0684182,7.716296799999999",7.716296799999999
GPADEL Torino Cenisia,"Via Cesana, 17, Torino",OPERATIONAL,7.6507337,45.0698617,"45.0698617,7.6507337",7.6507337
GPADEL Leinì,"Via Volpiano, 43, Leinì",OPERATIONAL,7.725733300000001,45.18544319999999,"45.18544319999999,7.725733300000001",7.725733300000001
Verdelago Sports & Life Club,"Frazione Mezzi Po, 97, Settimo Torinese",OPERATIONAL,7.8171326,45.15598809999999,"45.15598809999999,7.8171326",7.8171326
Boschi Sport Club,"Str. Maddalena, 109, Moncalieri",OPERATIONAL,7.713195600000001,45.0241939,"45.0241939,7.713195600000001",7.713195600000001
Padel Investment S.r.l.,"Piazza Giuseppe Failla, 2, Moncalieri",OPERATIONAL,7.6935444,45.000083,"45.000083,7.6935444",7.6935444
Royal Club,"Piazza Muzio Scevola, 2, Torino",OPERATIONAL,7.679573899999999,45.0399266,"45.0399266,7.679573899999999",7.679573899999999
PADEL Montalivet,"Av. de l'Europe, Vendays-Montalivet",OPERATIONAL,-1.1441264,45.3731068,"45.3731068,-1.1441264",-1.1441264
LESPARRE TC,"25 Rte de Bordeaux, Lesparre-Médoc",OPERATIONAL,-0.929356,45.296864,"45.296864,-0.929356",-0.929356
RIBERACOIS CAST,"stade municipal, Ribérac",OPERATIONAL,0.337928,45.250366,"45.250366,0.337928",0.337928
🏸 Le MurMur 🍴 Restaurant • Bar • Complexe sportif,"Route de Riberac, 3 rue de la Borderie, Marsac-sur-l'Isle",OPERATIONAL,0.6652142,45.1982332,"45.1982332,0.6652142",0.6652142
Tennis Club,"3 All. des Sports, Chancelade",OPERATIONAL,0.6485539,45.1923133,"45.1923133,0.6485539",0.6485539
TULLE ACL FCD,"Le bourg, Tulle",OPERATIONAL,1.733421,45.248833,"45.248833,1.733421",1.733421
MONISTROL SUR LOIRE TC,Yssingeaux,OPERATIONAL,4.1661095,45.2908859,"45.2908859,4.1661095",4.1661095
Tennis Padel Club d'Unieux,"5 Rue Jean Jaurès, Unieux",OPERATIONAL,4.2796101,45.3948707,"45.3948707,4.2796101",4.2796101
Padel Bernard,"6 Chem. de la Razé, Fraisses",OPERATIONAL,4.2620428,45.3745392,"45.3745392,4.2620428",4.2620428
Padel André,"5 Imp. des Noyers, Firminy",CLOSED_TEMPORARILY,4.287547099999999,45.3809411,"45.3809411,4.287547099999999",4.287547099999999
BASSOIS (CT),Bas-en-Basset,OPERATIONAL,4.109558,45.305847,"45.305847,4.109558",4.109558
BOULIEU ST CLAIR TC,"Domaine de, Saint-Clair",OPERATIONAL,4.679461,45.27846100000001,"45.27846100000001,4.679461",4.679461
Tennis PADEL Clonas sur Varèze,"Grange Basse, Clonas-sur-Varèze",OPERATIONAL,4.786129,45.413298,"45.413298,4.786129",4.786129
LE SET CLUB SALAISIEN,"Imp. Jean Bouin, Salaise-sur-Sanne",OPERATIONAL,4.8197632,45.3361251,"45.3361251,4.8197632",4.8197632
Set Club Salaisien,"19 Rue Pierre Avit Nicolas, Salaise-sur-Sanne",OPERATIONAL,4.818261,45.344614,"45.344614,4.818261",4.818261
Tennis Club,"16 RUE CHARLES LINDBERGH, Saint-Étienne-de-Saint-Geoirs",OPERATIONAL,5.339369,45.355984,"45.355984,5.339369",5.339369
tennis club,"352 Rue des Écoles, La Buisse",OPERATIONAL,5.614943999999999,45.332359,"45.332359,5.614943999999999",5.614943999999999
VOREPPE TC,"stade ernest pineguy, Voreppe",OPERATIONAL,5.6374971,45.298171,"45.298171,5.6374971",5.6374971
Montbonnot Tennis Club,"95 Rue Vaucanson, Montbonnot-Saint-Martin",OPERATIONAL,5.8148465,45.2205886,"45.2205886,5.8148465",5.8148465
CORENC TC,"Croix de Montfleury, Parc municip. sports, Corenc",OPERATIONAL,5.762243,45.219563,"45.219563,5.762243",5.762243
Mooving Arena,"ZA du Pruney, 622 Rue Amable Matussière, Le Versoud",OPERATIONAL,5.8758756,45.2286077,"45.2286077,5.8758756",5.8758756
MOIRANS TC,"274 Rte des Béthanies, Moirans",OPERATIONAL,5.565528,45.320709,"45.320709,5.565528",5.565528
MEYLAN TC,"47 Bd des Alpes, Meylan",OPERATIONAL,5.774608,45.20422,"45.20422,5.774608",5.774608
ALLEVARD ST PIERRE TC,"1 Chem. de la Touvière, Allevard",OPERATIONAL,6.075191999999999,45.394485,"45.394485,6.075191999999999",6.075191999999999
CORBIER TENNIS CLUB,"Mairie, Villarembert",OPERATIONAL,6.265158,45.24115,"45.24115,6.265158",6.265158
Brangi's Padel Lanzo,"Viale Celestino Tinetti, 3, Lanzo torinese",OPERATIONAL,7.499179799999999,45.26868049999999,"45.26868049999999,7.499179799999999",7.499179799999999
Canavese Padel S.S.D. a.r.l.,"Via Agliè, 2, Bairo",OPERATIONAL,7.759184400000001,45.38495160000001,"45.38495160000001,7.759184400000001",7.759184400000001
Fai Sport San Carlo,"Via delle Scuole, 40, San Carlo Canavese",OPERATIONAL,7.6184444,45.2463643,"45.2463643,7.6184444",7.6184444
Gonetta Go,"Str. S. Giovanni, 39, San Carlo Canavese",OPERATIONAL,7.619387700000001,45.2427502,"45.2427502,7.619387700000001",7.619387700000001
Tennis Club,"Via Grande Torino, 23, Ciriè",OPERATIONAL,7.605788700000001,45.2175674,"45.2175674,7.605788700000001",7.605788700000001
Orange Padel,"Via Favorita, 111, Chivasso",OPERATIONAL,7.893522000000001,45.20041250000001,"45.20041250000001,7.893522000000001",7.893522000000001
SKY PADEL CENTER,"SKY PADEL CENTER e calcetto Dieci10, VIA FAUSTO COPPI snc CENTRO SPORTIVO, Torrazza Piemonte",OPERATIONAL,7.978350799999999,45.2213252,"45.2213252,7.978350799999999",7.978350799999999
L’officina Padel Club,"Via S. Secondo, 81, Mosche",OPERATIONAL,7.892369899999999,45.2246878,"45.2246878,7.892369899999999",7.892369899999999
Viverone Padel La Riva,"Località bancassa sn, Piverone",OPERATIONAL,8.0241998,45.424357,"45.424357,8.0241998",8.0241998
Centro Sportivo Moncrivello,"Strada San Giuseppe, 1, Moncrivello",OPERATIONAL,8.0049333,45.3256123,"45.3256123,8.0049333",8.0049333
Centro Sportivo Camaleonte,"Via Torino, 404, Brandizzo",OPERATIONAL,7.8308614,45.1739141,"45.1739141,7.8308614",7.8308614
Tennis Padel - Pro Vercelli,"Corso Giuseppe Rigola, 138, Vercelli",OPERATIONAL,8.4362287,45.3352717,"45.3352717,8.4362287",8.4362287
Skill Padel - Vercelli - Prarolo,"Strada Provinciale del Monferrato, 7, Prarolo",OPERATIONAL,8.455917399999999,45.2885871,"45.2885871,8.455917399999999",8.455917399999999
Circolo Tennis e Padel 360 Sport,"Via G. Varalda, Asigliano Vercellese",OPERATIONAL,8.405555699999999,45.2630615,"45.2630615,8.405555699999999",8.405555699999999
Move Padel,"45.310505, 8.399927, Vercelli",OPERATIONAL,8.4002189,45.3104934,"45.3104934,8.4002189",8.4002189
Tennis Padel School,"4 Av. du Parc des Sports, Vaux-sur-Mer",OPERATIONAL,-1.068093,45.6429955,"45.6429955,-1.068093",-1.068093
PADEL Benjamin ostéopathe,"55 Bd du Colonel Robert Baillet, Royan",OPERATIONAL,-1.0400736,45.62908909999999,"45.62908909999999,-1.0400736",-1.0400736
SOULAC TC,"1 Passage Communale de Tottoral, Soulac-sur-Mer",OPERATIONAL,-1.1232751,45.5151088,"45.5151088,-1.1232751",-1.1232751
VAUX SUR MER TC,"4 Av. du Parc des Sports, Vaux-sur-Mer",OPERATIONAL,-1.0680984,45.6430026,"45.6430026,-1.0680984",-1.0680984
CLUB CENTER,"Zi du mazet, Imp. du Grand Puy, Ussel",OPERATIONAL,2.3257771,45.5524887,"45.5524887,2.3257771",2.3257771
BORTOISE AS,"stade municipal, Sarroux - St Julien",OPERATIONAL,2.4954221,45.4010475,"45.4010475,2.4954221",2.4954221
MONTBRISON (TENNIS CLUB),"de Beauregard, 13 Rue du Stade, Montbrison",OPERATIONAL,4.063338,45.607449,"45.607449,4.063338",4.063338
Padel Shot Saint-Etienne,"19 All. Jean Lauer, Saint-Étienne",OPERATIONAL,4.392609999999999,45.460755,"45.460755,4.392609999999999",4.392609999999999
Elan Sport,"46 Route de l'Etrat (proche de Saint Etienne Proche de St Etienne, L'Etrat",OPERATIONAL,4.3821911,45.4800872,"45.4800872,4.3821911",4.3821911
SAINT BONNET LES OULES (TC),"Stade, Lapra, Saint-Bonnet-les-Oules",OPERATIONAL,4.3215332,45.5397644,"45.5397644,4.3215332",4.3215332
Club Cœur et Santé - Champirol 42,"2 Rue Gutenberg, Saint-Priest-en-Jarez",OPERATIONAL,4.3656235,45.4772887,"45.4772887,4.3656235",4.3656235
Club 42 Indoor,"ZAC des Murons, 2 Rue François Durafour, Andrézieux-Bouthéon",OPERATIONAL,4.2849261,45.5436655,"45.5436655,4.2849261",4.2849261
L'Atelier Raquettes,"19 All. Jean Lauer, Saint-Étienne",OPERATIONAL,4.3921003,45.4609977,"45.4609977,4.3921003",4.3921003
Tennis Squash Padel de Saint-Chamond,"Bd de la Grande Terre, Saint-Chamond",OPERATIONAL,4.5318159,45.47126799999999,"45.47126799999999,4.5318159",4.5318159
SAINT CHAMOND (TEN SQUASH CLUB),"17 A Chemin des Chênes, L'Horme",OPERATIONAL,4.536373,45.476002,"45.476002,4.536373",4.536373
VIENNE TC,"stade de, 2 Bd Pacatianus, Vienne",OPERATIONAL,4.852132999999999,45.505585,"45.505585,4.852132999999999",4.852132999999999
SAS SEVAN,"Rue René Sibille, Pont-Évêque",OPERATIONAL,4.9053091,45.5283287,"45.5283287,4.9053091",4.9053091
OLYMPIA SPORTS,"ZA des Forges, Rue René Sibille, Pont-Évêque",OPERATIONAL,4.9061188,45.5293273,"45.5293273,4.9061188",4.9061188
CHARLY (ENTENTE SPORTIVE),"395 Rte de Saint-Abdon, Charly",OPERATIONAL,4.795897,45.658039,"45.658039,4.795897",4.795897
LUZINAY TENNIS CLUB,"Rue des Allobroges, Luzinay",OPERATIONAL,4.962069,45.587509,"45.587509,4.962069",4.962069
MAUBEC TENNIS CLUB,"39 Chem. du Paternos, Maubec",OPERATIONAL,5.26405,45.5668924,"45.5668924,5.26405",5.26405
LES BALMES DAUPHINOISES,"VC du Collège, Saint-Chef",OPERATIONAL,5.357653,45.641697,"45.641697,5.357653",5.357653
Champions Five,"6 Rue Isaac Asimov, Bourgoin-Jallieu",OPERATIONAL,5.2490758,45.5894321,"45.5894321,5.2490758",5.2490758
Tennis Squash Villefontaine,"Centre Marcel Bernard, Rue de la Raz, Villefontaine",OPERATIONAL,5.1400248,45.621753,"45.621753,5.1400248",5.1400248
Tennis-Club Bourgoin Jallieu,"Place Henri Drevet, Bourgoin-Jallieu",OPERATIONAL,5.2886982,45.5905672,"45.5905672,5.2886982",5.2886982
LES ABRETS LA BATIE ST ANDRE TC,"567 Chemin du Menou, Saint-Jean-d'Avelanne",OPERATIONAL,5.571787,45.54799999999999,"45.54799999999999,5.571787",5.571787
LE BOURGET DU LAC TC,"Bd Ernest Coudurier, Le Bourget-du-Lac",OPERATIONAL,5.860748999999999,45.654663,"45.654663,5.860748999999999",5.860748999999999
MONTMELIAN TC,"RD 1006, Montmélian",OPERATIONAL,6.033164999999999,45.505371,"45.505371,6.033164999999999",6.033164999999999
Balle De Match,"980 Rte d'Aix, Viviers-du-Lac",OPERATIONAL,5.9091401,45.6572595,"45.6572595,5.9091401",5.9091401
Drumettaz Tennis Club,"269 Rte du Chef- Lieu, Drumettaz-Clarafond",OPERATIONAL,5.934954500000001,45.6586068,"45.6586068,5.934954500000001",5.934954500000001
Tennis Club,Challes-les-Eaux,OPERATIONAL,5.9818471,45.5528866,"45.5528866,5.9818471",5.9818471
LA PLAGNE TARENTAISE TENNIS CLUB,"le Clos, Rue Saint-Martin",OPERATIONAL,6.666370000000001,45.550747,"45.550747,6.666370000000001",6.666370000000001
TENNIS AVENTURE VAL D'ISÈRE,"Route de l'eau rousse, Val-d'Isère",OPERATIONAL,6.9737127,45.4311848,"45.4311848,6.9737127",6.9737127
Ivrea tennis academy ssd,"Stradale Cigliano, Albiano D'ivrea",OPERATIONAL,7.928302999999999,45.4358429,"45.4358429,7.928302999999999",7.928302999999999
ORANGE SPORT CENTER,"Via Canton Gurgo, Romano Canavese",OPERATIONAL,7.8640461,45.3951059,"45.3951059,7.8640461",7.8640461
Padel Club Carisio,"Via Torino, 3, Fornace Crocicchio",OPERATIONAL,8.230831799999999,45.4462665,"45.4462665,8.230831799999999",8.230831799999999
Padelzero,"Via dal Mosso, 1, Gaglianico",OPERATIONAL,8.0861517,45.5340839,"45.5340839,8.0861517",8.0861517
Santo Stefano Padel & Tennis,"Via Giuseppe Garibaldi, 5, Sandigliano",OPERATIONAL,8.0753258,45.5157935,"45.5157935,8.0753258",8.0753258
Hype Padel Center,"Str. Trossi, 38, Benna",OPERATIONAL,8.126010299999999,45.50436209999999,"45.50436209999999,8.126010299999999",8.126010299999999
Centro Sportivo La Capannina,"Via Roma, 1, Cerreto Castello",OPERATIONAL,8.1532543,45.5654791,"45.5654791,8.1532543",8.1532543
IØ Padel,"34 Rue des Cayannes, Le Château-d'Oléron",OPERATIONAL,-1.2096297,45.8700145,"45.8700145,-1.2096297",-1.2096297
Tennis Padel Club La Tremblade,"3 All. des Sports, La Tremblade",OPERATIONAL,-1.1612913,45.7882931,"45.7882931,-1.1612913",-1.1612913
Benjamin Padel - Ostéopathe - Arvert (17530),"14 Rue des Forges, Arvert",OPERATIONAL,-1.1373834,45.7529081,"45.7529081,-1.1373834",-1.1373834
Tennis Club,"27 Rue Charles Hervé, Saint-Augustin",OPERATIONAL,-1.100581,45.733341,"45.733341,-1.100581",-1.100581
BASSIN TC,"22 Av. de Beaulieu, MARENNES",OPERATIONAL,-1.103608,45.82935,"45.82935,-1.103608",-1.103608
BREUILLET - ST SULPICE DE ROYAN TC,"3 Imp. des Bleuets, Breuillet",OPERATIONAL,-1.057352,45.69171499999999,"45.69171499999999,-1.057352",-1.057352
ARVERT TC,"Parc des Loisirs, Étaules",OPERATIONAL,-1.125824,45.740707,"45.740707,-1.125824",-1.125824
Stadium16,"40 Rue Armand Simard, Cognac",OPERATIONAL,-0.3264856,45.68674679999999,"45.68674679999999,-0.3264856",-0.3264856
Padel Spot,"144 Rte de Vars, Gond-Pontouvre",OPERATIONAL,0.1626673,45.6708691,"45.6708691,0.1626673",0.1626673
4PADEL Limoges,"8 Rue de Buxerolles Etage 0, Limoges",OPERATIONAL,1.2626056,45.8705075,"45.8705075,1.2626056",1.2626056
RED STAR PADEL TENNIS CLUB,"81 Rue de Beaupuy, Limoges",OPERATIONAL,1.248949,45.84196499999999,"45.84196499999999,1.248949",1.248949
Terrain de padel - Legrand Bas Fargeas,"41bis Rue de Feytiat, Limoges",OPERATIONAL,1.2847952,45.8227918,"45.8227918,1.2847952",1.2847952
AIXE TC,"4 Rue maurice ravel, Aixe-sur-Vienne",OPERATIONAL,1.131162,45.790531,"45.790531,1.131162",1.131162
Access Padel,"Rte de Châteaugay, Malauzat",OPERATIONAL,3.0621546,45.8453175,"45.8453175,3.0621546",3.0621546
Bad Hit,"89 Rue de la Pradelle, Clermont-Ferrand",OPERATIONAL,3.1052824,45.77291839999999,"45.77291839999999,3.1052824",3.1052824
CLERMONT U.C.,"7 Impasse du Berry, Cournon-d'Auvergne",OPERATIONAL,3.106079,45.758198,"45.758198,3.106079",3.106079
CUC Tennis Club,"Vallières, Clermont-Ferrand",OPERATIONAL,3.0853246,45.7625701,"45.7625701,3.0853246",3.0853246
BLANZAT (F.R),"Annette, Blanzat",OPERATIONAL,3.077898,45.828943,"45.828943,3.077898",3.077898
PLAYER 63,"4 Rue des Loyes, Pont-du-Château",OPERATIONAL,3.2240798,45.7874293,"45.7874293,3.2240798",3.2240798
LEMPDES (ATLETIC CLUB),"route de la Piscine, Lempdes",OPERATIONAL,3.192571,45.77758799999999,"45.77758799999999,3.192571",3.192571
HPark by Aurélien Rougerie,"Rue de l'Eminee, Clermont-Ferrand",OPERATIONAL,3.1416358,45.7621483,"45.7621483,3.1416358",3.1416358
Cabinet PADEL,"41 Rue de Lyon, Boën-sur-Lignon",OPERATIONAL,4.006283499999999,45.742742,"45.742742,4.006283499999999",4.006283499999999
